年月,房屋類型,地址,屋齡,格局,出售樓層_總樓層,建物坪數,土地坪數,車位坪數,車位總價,每坪單價,成交總價,googleAPI_return_Address,lat,lng,street
10404(實價),套房,嘉義市嘉義市小雅路181~210號,21.8,1房/1廳/1衛,4 /共16層,14.56,1.76,--,--萬,5.6萬,82萬,600台灣嘉義市東區小雅路185號,23.4726044,120.4740688,蘭潭里
10404(實價),套房,嘉義市嘉義市中興路31~60號,26.6,1房/1廳/1衛,6 /共10層,11.43,1.03,--,--萬,10.5萬,120萬,600台灣嘉義市西區中興路21號,23.4803298,120.4392574,後驛里
10404(實價),透天厝,嘉義市嘉義市宣信街151~180號,39.1,3房/2廳/2衛,1 /共2層,32.39,19.66,--,--萬,16.1萬,520萬,600台灣嘉義市東區宣信街194-228號,23.4677553,120.4612433,芳安里
10404(實價),透天厝,嘉義市嘉義市立仁路301~330號,7.8,4房/3廳/4衛,1 /共4層,72.68,39.02,--,--萬,21.7萬,1580萬,600台灣嘉義市東區立仁路330號,23.463718,120.46033,頂寮里
10404(實價),公寓,嘉義市嘉義市重興里博愛路一段496巷1~30號,28.4,3房/2廳/2衛,3 /共5層,32.09,8.35,--,--萬,6.9萬,220萬,600台灣嘉義市西區博愛路一段482巷30號,23.4864012,120.4425852,重興里
10404(實價),華廈,嘉義市嘉義市嘉北街61~90號,24.5,3房/1廳/2衛,1 /共7層,62.35,14.22,--,--萬,11.5萬,720萬,600台灣嘉義市東區嘉北街90號,23.4940596,120.4536092,仁義里
10404(實價),住宅大樓,嘉義市嘉義市彌陀路121~150號,19.1,3房/2廳/2衛,20 /共20層,39.59,2.96,--,--萬,8.3萬,330萬,600台灣嘉義市東區彌陀路121號,23.4666592,120.4667133,芳草里
10404(實價),透天厝,嘉義市嘉義市大同路438巷1弄1~30號,16.2,4房/2廳/3衛,1 /共3層,43.85,26.18,--,--萬,13.9萬,610萬,600台灣嘉義市西區大同路438巷1弄32號,23.4749078,120.4159637,港坪里
10404(實價),住宅大樓,嘉義市嘉義市安樂街61~90號,15.3,3房/2廳/2衛,9 /共12層,44,6.75,--,--萬,10.4萬,456萬,600台灣嘉義市東區安樂街60-62號,23.4831185,120.4612216,中山里
10404(實價),透天厝,嘉義市嘉義市蘭州四街31~60號,0.7,5房/2廳/5衛,1 /共3層,51.64,25.11,--,--萬,20.9萬,1080萬,600台灣嘉義市西區蘭州四街37號,23.4656285,120.4296491,車店里
10404(實價),透天厝,嘉義市嘉義市溪興街6巷3弄1~30號,1.8,6房/2廳/6衛,1 /共5層,121.3,82.07,--,--萬,16.9萬,2050萬,600台灣嘉義市西區博愛路一段482巷30號,23.4864012,120.4425852,重興里
10404(實價),華廈,嘉義市嘉義市北榮街121~150號,24.3,3房/2廳/2衛,1 /共7層,279.56,36.98,--,--萬,11.4萬,3180萬,600台灣嘉義市西區北榮街78-82號,23.4807719,120.4478229,國華里
10404(實價),套房,嘉義市嘉義市建成街181~210號,23.8,1房/1廳/1衛,4 /共6層,15.04,3.12,--,--萬,8萬,120萬,600台灣嘉義市西區建成街195號,23.4687551,120.4375142,車店里
10404(實價),華廈,嘉義市嘉義市永康三街1~30號,22.8,3房/2廳/2衛,7 /共7層,50.31,7.63,--,--萬,6.4萬,320萬,600台灣嘉義市西區永康三街1號,23.4755222,120.425434,磚磘里
10404(實價),套房,嘉義市嘉義市中正路391~420號,19.1,1房/1廳/1衛,10 /共11層,9.16,0.39,--,--萬,9.3萬,85萬,600台灣嘉義市西區中正路383-399號,23.4788021,120.4495005,文化里
10404(實價),華廈,嘉義市嘉義市彌陀路238巷59弄1~30號,25.2,3房/2廳/2衛,4 /共7層,37.01,7.14,--,--萬,7.6萬,280萬,600台灣嘉義市東區彌陀路238巷7弄5號,23.4740199,120.4632164,短竹里
10404(實價),住宅大樓,嘉義市嘉義市德明路61~90號,19.7,3房/2廳/2衛,19 /共19層,39.31,3.14,--,--萬,9.5萬,375萬,600台灣嘉義市西區德明路90號,23.4814836,120.4320387,福全里
10404(實價),透天厝,嘉義市嘉義市義教街613巷1~30號,24.4,4房/2廳/2衛,1 /共3層,20.42,22.99,--,--萬,25.4萬,518萬,600台灣嘉義市東區義教街613巷27號,23.4974333,120.4573681,頂庄里
10404(實價),住宅大樓,嘉義市嘉義市金龍街31~60號,19.9,3房/2廳/2衛,7 /共15層,48.89,5.98,--,--萬,8.4萬,411萬,600台灣嘉義市東區金龍街33-35號,23.4789667,120.4707766,東川里
10404(實價),透天厝,嘉義市嘉義市大義街1~30號,10.3,5房/2廳/3衛,1 /共4層,59.09,32.36,--,--萬,14.6萬,860萬,600台灣嘉義市西區大利街133-165號,23.4675671,120.4168715,劉厝里
10403(實價),透天厝,嘉義市嘉義市永康三街1~30號,21.8,4房/3廳/3衛,1 /共4層,82.69,32.67,--,--萬,10.1萬,838萬,600台灣嘉義市西區永康三街1號,23.4755222,120.425434,磚磘里
10403(實價),住宅大樓,嘉義市嘉義市忠孝路781~810號,19.4,1房/1廳/1衛,9 /共11層,11.43,1.69,--,--萬,7.9萬,90萬,600台灣嘉義市東區忠孝路782號,23.5097412,120.4461873,荖藤里
10403(實價),透天厝,嘉義市嘉義市盧厝31~60號,4.7,4房/2廳/3衛,1 /共3層,66.01,61.23,--,--萬,14.6萬,965萬,600台灣嘉義市東區保義路60巷17號,23.5013395,120.4532965,後湖里
10403(實價),透天厝,嘉義市嘉義市金龍街91~120號,0,5房/2廳/6衛,1 /共4層,97.31,59.59,--,--萬,27.2萬,2650萬,600台灣嘉義市東區金龍街91號,23.4774845,120.4660093,東川里
10403(實價),透天厝,嘉義市嘉義市義教街127巷1~30號,36.5,3房/2廳/2衛,1 /共2層,32.34,31.46,--,--萬,11.1萬,360萬,600台灣嘉義市東區義教街30號,23.4934882,120.4678217,新店里
10403(實價),透天厝,嘉義市嘉義市撫順三街61~90號,31.9,3房/3廳/3衛,1 /共2層,37.68,30.86,--,--萬,7.7萬,290萬,600台灣嘉義市西區撫順三街62號,23.4904434,120.4394763,新厝里
10403(實價),透天厝,嘉義市嘉義市溪興街231巷24弄61~90號,25.4,3房/2廳/1衛,1 /共3層,57.98,24.81,--,--萬,7.3萬,426萬,600台灣嘉義市東區溪興街231巷24弄46號,23.4525425,120.4554678,興村里
10403(實價),透天厝,嘉義市嘉義市南京東街70巷1~30號,39.3,3房/2廳/1衛,1 /共2層,23.3,16.94,--,--萬,20.1萬,468萬,600台灣嘉義市西區民生南路850巷1弄30號,23.4545835,120.4393273,湖內里
10403(實價),透天厝,嘉義市嘉義市民生南路485巷1~30號,42.9,3房/2廳/3衛,1 /共2層,26.38,17.24,--,--萬,13.8萬,365萬,600台灣嘉義市西區民生南路850巷1弄30號,23.4545835,120.4393273,湖內里
10403(實價),華廈,嘉義市嘉義市林森東路211巷1~30號,25.2,4房/2廳/2衛,3 /共7層,46.52,10.11,--,--萬,9.7萬,450萬,600台灣嘉義市東區林森東路269巷1弄30號,23.4901012,120.4654374,新店里
10403(實價),辦公商業大樓,嘉義市嘉義市仁愛路331~360號,19.2,0房/0廳/0衛,4 /共14層,28.59,2.86,--,--萬,10.8萬,310萬,600台灣嘉義市西區仁愛路398-410號,23.4736556,120.4424013,新富里
10403(實價),透天厝,嘉義市嘉義市興業新村61~90號,43.2,0房/0廳/0衛,1 /共2層,20.08,16.03,--,--萬,12.5萬,250萬,600台灣嘉義市西區興業西路250號,23.4681445,120.4404587,自強里
10403(實價),透天厝,嘉義市嘉義市立仁路42巷1~30號,0.2,0房/0廳/0衛,1 /共4層,55.42,27.89,--,--萬,18.6萬,1032萬,600台灣嘉義市東區立仁路141-1號,23.4641073,120.4622139,芳安里
10403(實價),透天厝,嘉義市嘉義市國賢一街1~30號,21.8,5房/2廳/2衛,1 /共4層,76.61,30.86,--,--萬,13.1萬,1000萬,600台灣嘉義市西區國賢一街1號,23.4844536,120.4301086,保福里
10403(實價),住宅大樓,嘉義市嘉義市博東路1~30號,20.8,1房/1廳/1衛,11 /共12層,19.7,3.03,--,--萬,9.1萬,180萬,600台灣嘉義市東區博東路1號,23.4902251,120.4560186,仁義里
10403(實價),透天厝,嘉義市嘉義市下埤里2鄰頂埤1~30號,35.3,3房/2廳/2衛,1 /共2層,41.37,38.92,--,--萬,5.3萬,220萬,找不到位址,無,無,無
10403(實價),華廈(含車位),嘉義市嘉義市崇文街121~150號,24.2,5房/3廳/4衛,6 /共6層,121.63,25.56,--,--萬,9.1萬,1108萬,600台灣嘉義市東區崇文街121號,23.4721348,120.4531575,豐年里
10403(實價),透天厝,嘉義市嘉義市保建街121~150號,35.2,5房/3廳/3衛,1 /共3層,37.43,20.57,--,--萬,5.6萬,210萬,600台灣嘉義市東區保建街107-123號,23.5005182,120.4524456,後湖里
10403(實價),透天厝,嘉義市嘉義市仁愛一街1~30號,27.3,7房/3廳/5衛,1 /共4層,75.75,42.8,--,--萬,19.8萬,1500萬,600台灣嘉義市西區仁愛一街20-48號,23.4676094,120.4419765,自強里
10403(實價),透天厝,嘉義市嘉義市吳鳳南路17巷1~30號,14.8,5房/3廳/5衛,1 /共4層,91.24,35.7,--,--萬,18.6萬,1700萬,600台灣嘉義市東區吳鳳南路17巷30號,23.4735075,120.4554959,興南里
10403(實價),透天厝,嘉義市嘉義市立仁路42巷1~30號,0.2,0房/0廳/0衛,1 /共4層,57.36,30.61,--,--萬,15.9萬,910萬,600台灣嘉義市東區立仁路141-1號,23.4641073,120.4622139,芳安里
10403(實價),透天厝,嘉義市嘉義市立仁路42巷1~30號,0.2,0房/0廳/0衛,1 /共4層,54.24,27.59,--,--萬,16.4萬,890萬,600台灣嘉義市東區立仁路141-1號,23.4641073,120.4622139,芳安里
10403(實價),住宅大樓,嘉義市嘉義市小雅路181~210號,21.8,1房/1廳/1衛,15 /共16層,34.95,4.18,--,--萬,6.3萬,221萬,600台灣嘉義市東區小雅路185號,23.4726044,120.4740688,蘭潭里
10403(實價),透天厝,嘉義市嘉義市立仁路42巷1~30號,0.2,0房/0廳/0衛,1 /共4層,57.17,30.01,--,--萬,17.5萬,998萬,600台灣嘉義市東區立仁路141-1號,23.4641073,120.4622139,芳安里
10403(實價),住宅大樓,嘉義市嘉義市彌陀路121~150號,19,2房/1廳/1衛,9 /共20層,18.7,1.48,--,--萬,9.1萬,170萬,600台灣嘉義市東區彌陀路121號,23.4666592,120.4667133,芳草里
10403(實價),套房,嘉義市嘉義市蘭井街451~480號,22.2,1房/0廳/1衛,13 /共15層,8.1,0.67,--,--萬,7.2萬,58萬,600台灣嘉義市西區蘭井街449號,23.4767978,120.4426592,書院里
10403(實價),透天厝,嘉義市嘉義市忠孝北街91~120號,10.8,6房/2廳/3衛,1 /共3層,50.15,31.46,--,--萬,15萬,750萬,600台灣嘉義市東區忠孝北街122號,23.5165961,120.4464509,荖藤里
10403(實價),華廈,嘉義市嘉義市嘉北街66巷1~30號,24.4,2房/2廳/2衛,2 /共7層,28.89,6.05,--,--萬,10.4萬,300萬,600台灣嘉義市東區嘉北街66巷5號,23.493988,120.454477,頂庄里
10403(實價),店面(店鋪),嘉義市嘉義市杭州四街91~120號,26.2,2房/2廳/2衛,1 /共7層,31.85,8.11,--,--萬,9.7萬,310萬,600台灣嘉義市西區杭州四街98號,23.467645,120.4452009,美源里
10403(實價),住宅大樓(含車位),嘉義市嘉義市志昇街91~120號,10.3,3房/2廳/2衛,5 /共14層,61.96,14.71,--,--萬,8.7萬,540萬,600台灣嘉義市西區志昇街79號,23.4691128,120.4430855,翠岱里
10403(實價),透天厝,嘉義市嘉義市民生南路485巷1~30號,33.8,4房/1廳/2衛,1 /共3層,43.88,21.48,--,--萬,8.2萬,358萬,600台灣嘉義市西區民生南路850巷1弄30號,23.4545835,120.4393273,湖內里
10403(實價),套房,嘉義市嘉義市小雅路181~210號,21.8,1房/1廳/1衛,3 /共16層,16.64,1.98,--,--萬,6.3萬,105萬,600台灣嘉義市東區小雅路185號,23.4726044,120.4740688,蘭潭里
10403(實價),透天厝,嘉義市嘉義市大聖南街91~120號,8.8,6房/2廳/4衛,1 /共3層,58.48,30.78,--,--萬,13.5萬,790萬,600台灣嘉義市西區大聖南街120號,23.4609223,120.4186174,劉厝里
10403(實價),透天厝,嘉義市嘉義市東義路109巷1~30號,0.6,5房/3廳/5衛,1 /共4層,97.01,52.68,--,--萬,13.6萬,1323萬,600台灣嘉義市東區東義路109巷1號,23.4950314,120.4688871,後庄里
10403(實價),華廈,嘉義市嘉義市北港路241~270號,20.8,3房/2廳/2衛,9 /共10層,36.71,5.69,--,--萬,9.3萬,341萬,600台灣嘉義市西區北港路244號,23.4781834,120.433642,福全里
10403(實價),住宅大樓,嘉義市嘉義市玉山路158巷91~120號,19.7,3房/2廳/2衛,9 /共12層,36.31,4.94,--,--萬,9.1萬,330萬,600台灣嘉義市西區玉山路104號,23.4726976,120.4290426,磚磘里
10403(實價),公寓,嘉義市嘉義市宣信街241~270號,31.5,3房/1廳/1衛,3 /共5層,37.85,11.14,--,--萬,5.8萬,220萬,600台灣嘉義市東區宣信街252號,23.4688122,120.4604129,芳草里
10403(實價),透天厝,嘉義市嘉義市光彩街541~570號,0.8,10房/2廳/12衛,1 /共5層,103.38,27.77,--,--萬,28.1萬,2900萬,600台灣嘉義市西區光彩街541號,23.477635,120.4437435,書院里
10403(實價),住宅大樓(含車位),嘉義市嘉義市西區新榮路211~240號,17.3,2房/2廳/1衛,11 /共12層,28.07,2.87,--,--萬,11.9萬,335萬,600台灣嘉義市西區新榮路207號,23.4761405,120.444407,西榮里
10403(實價),透天厝,嘉義市嘉義市芳安路416巷1~30號,45.2,6房/2廳/3衛,1 /共2層,29.17,20.34,--,--萬,8.9萬,261萬,600台灣嘉義市東區芳安路1號,23.4688333,120.4654,芳草里
10403(實價),住宅大樓,嘉義市嘉義市彌陀路121~150號,19,2房/1廳/1衛,20 /共20層,21.4,1.48,--,--萬,7.2萬,155萬,600台灣嘉義市東區彌陀路121號,23.4666592,120.4667133,芳草里
10403(實價),住宅大樓,嘉義市嘉義市友愛路481~510號,15.3,3房/2廳/2衛,6 /共12層,34.33,3.75,--,--萬,8.7萬,300萬,600台灣嘉義市西區友愛路510號,23.4886401,120.4349389,保安里
10403(實價),透天厝,嘉義市嘉義市吳鳳南路365巷118弄1~30號,39.2,4房/2廳/2衛,1 /共2層,25.94,18.76,--,--萬,15.4萬,400萬,600台灣嘉義市東區吳鳳南路30號,23.4712666,120.4539625,豐年里
10403(實價),透天厝,嘉義市嘉義市大吉街61~90號,3.3,4房/3廳/3衛,1 /共3層,51.59,27.59,--,--萬,17.8萬,920萬,600台灣嘉義市西區大吉街63號,23.4652186,120.4180094,劉厝里
10403(實價),華廈,嘉義市嘉義市重慶路361~390號,21.4,2房/1廳/1衛,7 /共7層,10.97,1.79,--,--萬,6.8萬,75萬,600台灣嘉義市西區重慶路373號,23.4628796,120.4315962,福民里
10403(實價),華廈,嘉義市嘉義市永春三街1~30號,22.6,3房/2廳/2衛,4 /共10層,41.77,5.84,--,--萬,6萬,250萬,600台灣嘉義市西區永春三街32號,23.4783622,120.4259589,西平里
10403(實價),華廈,嘉義市嘉義市溫州二街91~120號,23.3,1房/1廳/1衛,4 /共6層,14.68,2.8,--,--萬,5萬,73萬,600台灣嘉義市西區溫州二街106號,23.4643282,120.4368017,福民里
10403(實價),住宅大樓(含車位),嘉義市嘉義市西區保福里2林國賢一街61~90號,22.8,4房/2廳/2衛,14 /共15層,74.63,7.06,--,--萬,8.4萬,630萬,600台灣嘉義市西區國賢一街2號,23.484675,120.4304198,保福里
10403(實價),住宅大樓,嘉義市嘉義市八德路301~330號,20.3,3房/2廳/2衛,10 /共16層,34.58,3.74,--,--萬,9萬,310萬,600台灣嘉義市西區八德路330號,23.4912488,120.4302424,保安里
10403(實價),住宅大樓,嘉義市嘉義市八德路121~150號,21.1,3房/2廳/2衛,9 /共12層,34.19,4.35,--,--萬,8.9萬,303萬,600台灣嘉義市西區八德路117-127號,23.4858281,120.4305602,保福里
10403(實價),透天厝,嘉義市嘉義市東義路109巷1~30號,0.4,3房/3廳/4衛,1 /共3層,61.17,29.34,--,--萬,13.4萬,820萬,600台灣嘉義市東區東義路109巷1號,23.4950314,120.4688871,後庄里
10403(實價),透天厝,嘉義市嘉義市立仁路42巷1~30號,0.2,0房/0廳/0衛,1 /共4層,56.35,30.31,--,--萬,15.9萬,898萬,600台灣嘉義市東區立仁路141-1號,23.4641073,120.4622139,芳安里
10403(實價),透天厝,嘉義市嘉義市民生南路403巷40弄1~30號,36.1,4房/4廳/3衛,1 /共2層,29.8,22.39,--,--萬,14.4萬,430萬,600台灣嘉義市西區民生南路850巷1弄30號,23.4545835,120.4393273,湖內里
10403(實價),華廈,嘉義市嘉義市盧厝91~120號,24.9,3房/2廳/2衛,5 /共7層,36.85,7.64,--,--萬,9.1萬,336萬,600台灣嘉義市西區民生南路120巷1號,23.469895,120.4465293,致遠里
10403(實價),住宅大樓,嘉義市嘉義市德安路1~30號,20.7,3房/2廳/2衛,8 /共14層,47.31,3.94,--,--萬,8.2萬,390萬,600台灣嘉義市西區德安路3號,23.4841059,120.4334466,竹圍里
10403(實價),店面(店鋪),嘉義市嘉義市中山路1~30號,34.8,3房/1廳/3衛,1 /共7層,56,9.9,--,--萬,24.6萬,1380萬,600台灣嘉義市東區中山路46號,23.4825597,120.4608711,中山里
10403(實價),華廈,嘉義市嘉義市共和路61~90號,33.9,2房/2廳/2衛,5 /共9層,11.16,1.7,--,--萬,3.9萬,43萬,600台灣嘉義市東區共和路186-206號,23.4792446,120.4555668,民族里
10403(實價),透天厝,嘉義市嘉義市彌陀路241巷61~90號,39.5,2房/2廳/2衛,1 /共2層,18.42,15.73,--,--萬,7.6萬,140萬,600台灣嘉義市東區彌陀路90號,23.4668193,120.4673697,短竹里
10403(實價),透天厝,嘉義市嘉義市立仁路31~60號,0.2,0房/0廳/0衛,1 /共4層,84.19,29.4,--,--萬,17.2萬,1450萬,600台灣嘉義市東區立仁路38號,23.4656274,120.4658786,芳草里
10403(實價),透天厝,嘉義市嘉義市南京東街31~60號,33.3,4房/2廳/3衛,1 /共3層,48.22,21.48,--,--萬,10.4萬,500萬,600台灣嘉義市西區南京東街86號,23.4557607,120.4450942,光路里
10403(實價),公寓,嘉義市嘉義市盧厝里東洋新?271~300號,29.3,0房/0廳/0衛,4 /共5層,14.07,3.55,--,--萬,3.6萬,50萬,找不到位址,無,無,無
10403(實價),透天厝,嘉義市嘉義市芳安路335巷1~30號,35.2,6房/3廳/3衛,1 /共4層,36.66,19.06,--,--萬,10.8萬,395萬,600台灣嘉義市東區芳安路1號,23.4688333,120.4654,芳草里
10403(實價),套房,嘉義市嘉義市新民路707巷1~30號,17.8,1房/1廳/1衛,5 /共7層,15.63,2.81,--,--萬,8.1萬,127萬,600台灣嘉義市西區新民路707巷2號,23.4690412,120.4395523,垂楊里
10403(實價),住宅大樓(含車位),嘉義市嘉義市博東路1~30號,20.8,3房/1廳/2衛,5 /共12層,38.92,5.45,--,--萬,9.3萬,360萬,600台灣嘉義市東區博東路1號,23.4902251,120.4560186,仁義里
10403(實價),住宅大樓(含車位),嘉義市嘉義市世賢路三段151~180號,21.4,4房/2廳/2衛,9 /共12層,36.4,3.71,--,--萬,9.6萬,350萬,600台灣嘉義市西區世賢路三段151號,23.463308,120.4308058,福民里
10403(實價),透天厝,嘉義市嘉義市圓福街80巷31~60號,39.3,4房/2廳/2衛,1 /共2層,29.82,24.81,--,--萬,13.4萬,400萬,600台灣嘉義市東區圓福街80巷78號,23.4866119,120.4647835,王田里
10403(實價),住宅大樓,嘉義市嘉義市博東路151~180號,17,3房/1廳/2衛,13 /共22層,36.28,4.38,--,--萬,8.8萬,320萬,600台灣嘉義市東區博東路80-112號,23.4908563,120.4605339,太平里
10403(實價),套房,嘉義市嘉義市廣州街91~120號,24.3,1房/0廳/1衛,5 /共7層,11.02,2.14,--,--萬,10.9萬,120萬,600台灣嘉義市西區廣州街120號,23.4627158,120.4331098,福民里
10403(實價),透天厝,嘉義市嘉義市安東二街1~30號,27.9,4房/1廳/1衛,1 /共2層,36.16,29.85,--,--萬,13.2萬,476萬,600台灣嘉義市西區安東二街5號,23.4930444,120.4331934,保生里
10403(實價),透天厝,嘉義市嘉義市保安二路177巷1~30號,28.8,3房/2廳/2衛,1 /共2層,44.85,37.81,--,--萬,12.5萬,560萬,600台灣嘉義市西區保安二路6號,23.4891269,120.4390206,新厝里
10403(實價),住宅大樓,嘉義市嘉義市德明路61~90號,19.6,3房/2廳/2衛,7 /共19層,36.07,2.89,--,--萬,9.1萬,328萬,600台灣嘉義市西區德明路90號,23.4814836,120.4320387,福全里
10403(實價),套房,嘉義市嘉義市忠孝路1~30號,24.3,1房/1廳/1衛,7 /共8層,9.72,1.18,--,--萬,17.3萬,168萬,600台灣嘉義市東區忠孝路522-1號,23.4939767,120.452811,仁義里
10403(實價),套房,嘉義市嘉義市中正路391~420號,19,1房/0廳/1衛,10 /共11層,9.29,0.41,--,--萬,8.6萬,80萬,600台灣嘉義市西區中正路383-399號,23.4788021,120.4495005,文化里
10403(實價),住宅大樓,嘉義市嘉義市保建街31~60號,21.8,2房/2廳/1衛,4 /共13層,41.99,3.72,--,--萬,7.1萬,300萬,600台灣嘉義市東區保建街60號,23.5006199,120.4530035,後湖里
10403(實價),華廈,嘉義市嘉義市安和街31~60號,21.4,1房/1廳/1衛,6 /共6層,9.4,1.9,--,--萬,8.5萬,80萬,600台灣嘉義市東區安和街31號,23.475988,120.4583987,朝陽里
10403(實價),透天厝,嘉義市嘉義市西門街1~30號,43.5,3房/2廳/2衛,1 /共2層,23.27,18.15,--,--萬,10.7萬,250萬,600台灣嘉義市西區西門街1號,23.4716206,120.4436708,培元里
10403(實價),透天厝,嘉義市嘉義市福州七街1~30號,25.9,4房/2廳/3衛,1 /共2層,46.16,25.11,--,--萬,14.9萬,690萬,600台灣嘉義市西區福州七街30號,23.4618875,120.4334259,福民里
10403(實價),華廈,嘉義市嘉義市國安三街1~30號,22.2,3房/1廳/2衛,7 /共7層,45.71,8.18,--,--萬,6.6萬,300萬,600台灣嘉義市西區國安三街9號,23.4900374,120.4294401,保福里
10403(實價),透天厝,嘉義市嘉義市後庄里11鄰林森東路319巷1~30號,32.8,4房/2廳/2衛,1 /共3層,56.61,23.29,--,--萬,9.4萬,530萬,600台灣嘉義市東區林森東路319巷1號,23.4916323,120.4691315,後庄里
10403(實價),住宅大樓,嘉義市嘉義市文雅街150巷1~30號,19.4,3房/2廳/2衛,7 /共12層,50.16,7.26,--,--萬,10.4萬,520萬,600台灣嘉義市東區文雅街140巷11號,23.4840615,120.4853228,文雅里
10403(實價),住宅大樓,嘉義市嘉義市志昇街91~120號,10.3,3房/2廳/2衛,8 /共14層,62.31,14.71,--,--萬,4.8萬,300萬,600台灣嘉義市西區志昇街79號,23.4691128,120.4430855,翠岱里
10403(實價),透天厝,嘉義市嘉義市遼寧二街31~60號,29.6,5房/2廳/2衛,1 /共2層,29.14,23.29,--,--萬,15萬,436萬,600台灣嘉義市西區遼寧二街43號,23.4931182,120.4401,新厝里
10403(實價),華廈(含車位),嘉義市嘉義市興仁街91~120號,22,3房/1廳/2衛,5 /共7層,39.39,7.37,--,--萬,7.4萬,290萬,600台灣嘉義市東區興仁街101號,23.4576692,120.4623609,興仁里
10403(實價),華廈(含車位),嘉義市嘉義市光彩街481~510號,21.9,1房/1廳/1衛,-1 /共6層,20.64,1.84,--,--萬,6.9萬,142萬,600台灣嘉義市西區光彩街481號,23.4778376,120.4459949,西榮里
10403(實價),透天厝,嘉義市嘉義市大富東街1~30號,2.6,5房/2廳/4衛,1 /共4層,61.17,30.05,--,--萬,13.9萬,850萬,600台灣嘉義市西區大富東街38號,23.4643362,120.4162635,劉厝里
10403(實價),華廈,嘉義市嘉義市南京路61~90號,21.3,2房/1廳/1衛,5 /共12層,20.4,2.07,--,--萬,8.1萬,165萬,600台灣嘉義市西區南京路61號,23.456272,120.44052,湖內里
10403(實價),透天厝,嘉義市嘉義市福全街91~120號,2.8,4房/2廳/3衛,1 /共4層,77.82,42.27,--,--萬,17.5萬,1360萬,600台灣嘉義市西區福全街91號,23.4787884,120.4305936,福全里
10403(實價),公寓,嘉義市嘉義市仁義新村1~30號,32.8,3房/1廳/1衛,5 /共5層,25.03,12.84,--,--萬,4.8萬,120萬,600台灣嘉義市東區紅毛埤119號,23.4604342,120.4847725,鹿寮里
10403(實價),透天厝,嘉義市嘉義市林森東路269巷80弄31~60號,12.5,4房/2廳/3衛,1 /共3層,47.77,25.25,--,--萬,9.2萬,438萬,600台灣嘉義市東區林森東路60號,23.4867484,120.4566382,林森里
10403(實價),套房,嘉義市嘉義市吳鳳南路547巷1~30號,24.3,1房/1廳/1衛,1 /共7層,8.46,1.55,--,--萬,8.9萬,75萬,600台灣嘉義市東區吳鳳南路547巷3號,23.4606688,120.4577884,安寮里
10403(實價),住宅大樓(含車位),嘉義市嘉義市玉山路158巷91~120號,19.7,3房/2廳/2衛,5 /共12層,36.31,4.94,--,--萬,8.8萬,320萬,600台灣嘉義市西區玉山路104號,23.4726976,120.4290426,磚磘里
10403(實價),套房,嘉義市嘉義市安和街31~60號,21.4,1房/1廳/1衛,4 /共6層,10.08,2.01,--,--萬,6.4萬,65萬,600台灣嘉義市東區安和街31號,23.475988,120.4583987,朝陽里
10403(實價),透天厝,嘉義市嘉義市立仁路10巷1~30號,3.4,19房/1廳/19衛,1 /共4層,130.45,53.24,--,--萬,16.9萬,2200萬,600台灣嘉義市東區立仁路141-1號,23.4641073,120.4622139,芳安里
10403(實價),住宅大樓,嘉義市嘉義市後湖里保建街31~60號,21.8,2房/1廳/1衛,5 /共12層,25.88,4.55,--,--萬,11.1萬,286萬,600台灣嘉義市東區保建街60號,23.5006199,120.4530035,後湖里
10403(實價),公寓,嘉義市嘉義市林森東路269巷38弄1~30號,22.4,2房/2廳/1衛,5 /共5層,41.51,13.29,--,--萬,4.3萬,180萬,600台灣嘉義市東區林森東路269巷1弄30號,23.4901012,120.4654374,新店里
10403(實價),透天厝,嘉義市嘉義市自由路391~420號,3.1,6房/3廳/4衛,1 /共4層,49.13,27.83,--,--萬,23.8萬,1168萬,600台灣嘉義市西區自由路391號,23.4922147,120.4315143,保安里
10403(實價),透天厝,嘉義市嘉義市五福街18巷1~30號,36.6,5房/2廳/2衛,1 /共2層,41,49.31,--,--萬,30.5萬,1250萬,600台灣嘉義市東區五福街18巷1號,23.486983,120.468528,王田里
10403(實價),住宅大樓(含車位),嘉義市嘉義市新民路391~420號,20.7,2房/2廳/1衛,6 /共12層,29.35,4.31,--,--萬,6.8萬,200萬,600台灣嘉義市西區新民路420號,23.4602379,120.4407319,光路里
10403(實價),華廈,嘉義市嘉義市新建街31~60號,20.8,2房/2廳/2衛,5 /共7層,11.41,2.1,--,--萬,8.3萬,95萬,600台灣嘉義市西區新建街16號,23.468731,120.4387561,垂楊里
10403(實價),透天厝,嘉義市嘉義市大業街184巷31~60號,0.7,4房/3廳/3衛,1 /共3層,55.41,25.71,--,--萬,14.4萬,800萬,600台灣嘉義市東區大業街184巷33號,23.4610274,120.4508729,興安里
10403(實價),住宅大樓,嘉義市嘉義市博東路151~180號,17,3房/2廳/2衛,1 /共22層,44.63,5.6,--,--萬,9萬,400萬,600台灣嘉義市東區博東路80-112號,23.4908563,120.4605339,太平里
10403(實價),店面(店鋪),嘉義市嘉義市新榮路121~150號,--,4房/2廳/3衛,1 /共3層,70.18,46.02,--,--萬,22.7萬,1593萬,600台灣嘉義市西區新榮路121號,23.4737573,120.4446604,新富里
10403(實價),透天厝,嘉義市嘉義市國治街1~30號,21.5,5房/2廳/3衛,1 /共5層,67.84,27.94,--,--萬,8.1萬,550萬,600台灣嘉義市西區國治街30號,23.4877119,120.429749,保福里
10403(實價),透天厝,嘉義市嘉義市大業街60巷1~30號,37.8,3房/2廳/2衛,1 /共2層,26.53,17.55,--,--萬,6.2萬,165萬,600台灣嘉義市東區大業街60巷66號,23.4629501,120.4539423,安業里
10403(實價),華廈,嘉義市嘉義市嘉北街12巷1~30號,24.4,3房/2廳/2衛,3 /共7層,38.63,6.4,--,--萬,10.7萬,415萬,600台灣嘉義市東區嘉北街30號,23.4938508,120.4556015,仁義里
10403(實價),透天厝,嘉義市嘉義市北社尾路258巷61~90號,16.3,4房/1廳/3衛,1 /共3層,46.8,28.74,--,--萬,11.1萬,520萬,600台灣嘉義市西區北社尾路258巷10號,23.4938597,120.4226869,北湖里
10403(實價),住宅大樓,嘉義市嘉義市德惠街31~60號,20.8,3房/2廳/2衛,8 /共12層,38.77,3.21,--,--萬,8.9萬,346萬,600台灣嘉義市西區德惠街32-34號,23.4837156,120.432457,竹圍里
10403(實價),透天厝,嘉義市嘉義市永樂四街1~30號,1.3,4房/2廳/5衛,1 /共4層,70.9,37.81,--,--萬,23.3萬,1650萬,600台灣嘉義市西區永樂四街11號,23.4752745,120.423045,港坪里
10403(實價),住宅大樓(含車位),嘉義市嘉義市志昇街1~30號,10.3,3房/2廳/2衛,9 /共14層,55.55,11.43,--,--萬,9.7萬,540萬,600台灣嘉義市西區仁愛路159巷22號,23.4689729,120.4422175,自強里
10403(實價),住宅大樓,嘉義市嘉義市志昇街1~30號,10.3,3房/2廳/2衛,13 /共14層,55.55,11.43,--,--萬,9萬,500萬,600台灣嘉義市西區仁愛路159巷22號,23.4689729,120.4422175,自強里
10403(實價),套房,嘉義市嘉義市忠孝路781~810號,19.4,1房/1廳/1衛,9 /共11層,13.42,1.98,--,--萬,8.2萬,110萬,600台灣嘉義市東區忠孝路782號,23.5097412,120.4461873,荖藤里
10403(實價),透天厝,嘉義市嘉義市玉山路541~570號,0.9,5房/3廳/5衛,1 /共5層,101.15,45.16,--,--萬,19.8萬,2000萬,600台灣嘉義市西區玉山路523-543號,23.4699774,120.4170123,劉厝里
10403(實價),透天厝,嘉義市嘉義市大富一街1~30號,11.3,3房/2廳/3衛,1 /共3層,52.61,32.69,--,--萬,15.7萬,825萬,600台灣嘉義市西區大富一街30號,23.4621022,120.4162922,劉厝里
10403(實價),華廈,嘉義市嘉義市世賢路四段456巷1~30號,18.5,3房/2廳/2衛,1 /共7層,38.64,7.34,--,--萬,9.7萬,375萬,600台灣嘉義市西區世賢路四段350巷27弄1號,23.462494,120.4502358,美源里
10403(實價),透天厝,嘉義市嘉義市松江二街1~30號,37.9,4房/2廳/2衛,1 /共2層,26.53,19.97,--,--萬,11.5萬,305萬,600台灣嘉義市西區松江二街26-33號,23.4931486,120.4416856,新厝里
10403(實價),透天厝,嘉義市嘉義市四維路301~330號,5.4,5房/2廳/6衛,1 /共4層,65.55,28.13,--,--萬,18.3萬,1200萬,600台灣嘉義市西區四維路301號,23.4874057,120.4272811,福安里
10403(實價),透天厝,嘉義市嘉義市大雅路二段448巷1~30號,41.8,3房/2廳/2衛,1 /共2層,14.96,37.81,--,--萬,16.1萬,241萬,600台灣嘉義市東區大雅路二段473號,23.4775692,120.4717124,長竹里
10403(實價),華廈,嘉義市嘉義市德陽街1~30號,22,3房/2廳/2衛,4 /共6層,38.42,6.44,--,--萬,8.6萬,330萬,600台灣嘉義市西區德陽街31號,23.4835889,120.4329751,竹圍里
10403(實價),透天厝,嘉義市嘉義市大雅路二段448巷1~30號,41.8,3房/2廳/2衛,1 /共2層,14.96,37.81,--,--萬,16.1萬,241萬,600台灣嘉義市東區大雅路二段473號,23.4775692,120.4717124,長竹里
10403(實價),住宅大樓,嘉義市嘉義市德明路37巷1~30號,20.3,3房/2廳/3衛,1 /共11層,65.09,9.83,--,--萬,8萬,520萬,600台灣嘉義市西區德明路37巷6號,23.481103,120.4315733,福全里
10403(實價),透天厝,嘉義市嘉義市立仁路10巷1~30號,3.4,19房/1廳/19衛,1 /共4層,130.45,53.54,--,--萬,16.9萬,2200萬,600台灣嘉義市東區立仁路141-1號,23.4641073,120.4622139,芳安里
10403(實價),店面(店鋪),嘉義市嘉義市仁愛路331~360號,18.5,7房/2廳/3衛,0 /共5層,180.83,39.02,--,--萬,15.5萬,2800萬,600台灣嘉義市西區仁愛路398-410號,23.4736556,120.4424013,新富里
10403(實價),住宅大樓(含車位),嘉義市嘉義市新民路751~780號,20.3,3房/1廳/2衛,10 /共15層,45.97,5.06,--,--萬,8.3萬,380萬,600台灣嘉義市西區新民路755號,23.4698902,120.4396623,垂楊里
10403(實價),住宅大樓(含車位),嘉義市嘉義市新民路751~780號,20.3,3房/1廳/2衛,10 /共15層,47.11,5.12,--,--萬,8.5萬,400萬,600台灣嘉義市西區新民路755號,23.4698902,120.4396623,垂楊里
10403(實價),透天厝,嘉義市嘉義市文雅街301~330號,11.3,5房/2廳/2衛,1 /共4層,56.48,25.71,--,--萬,18.4萬,1040萬,600台灣嘉義市東區文雅街168號,23.4833501,120.4847978,文雅里
10403(實價),透天厝,嘉義市嘉義市姜安街86巷1~30號,0.3,4房/3廳/5衛,1 /共4層,72.99,21.99,--,--萬,11.7萬,856萬,600台灣嘉義市西區興達路861號,23.4816379,120.4234869,福安里
10403(實價),華廈,嘉義市嘉義市永春一街1~30號,17.8,3房/1廳/2衛,6 /共6層,47.87,9.48,--,--萬,7.9萬,380萬,600台灣嘉義市西區永春一街30號,23.4776669,120.4265968,西平里
10403(實價),透天厝,嘉義市嘉義市北港路31~60號,50.5,0房/0廳/0衛,1 /共3層,48.94,25.11,--,--萬,8.2萬,400萬,600台灣嘉義市西區北港路196-198號,23.4770479,120.4353905,福全里
10403(實價),透天厝,嘉義市嘉義市延平街61~90號,79.2,2房/2廳/1衛,1 /共1層,10.31,20.27,--,--萬,48.5萬,500萬,600台灣嘉義市東區延平街61號,23.4775949,120.4581781,華南里
10403(實價),華廈,嘉義市嘉義市永福三街1~30號,22.3,3房/2廳/2衛,4 /共7層,38.41,6.48,--,--萬,7萬,267萬,600台灣嘉義市西區永福三街30號,23.4736996,120.4249398,磚磘里
10403(實價),透天厝,嘉義市嘉義市溪興街6巷3弄1~30號,1.8,6房/2廳/6衛,1 /共5層,118.78,83.37,--,--萬,17.1萬,2036萬,600台灣嘉義市西區博愛路一段482巷30號,23.4864012,120.4425852,重興里
10403(實價),華廈,嘉義市嘉義市垂楊路631~660號,30.7,1房/2廳/1衛,7 /共10層,20.48,2.04,--,--萬,6.3萬,130萬,600台灣嘉義市西區垂楊路611號,23.4725353,120.43788,新西里
10403(實價),公寓,嘉義市嘉義市東洋新?151~180號,25.3,4房/2廳/3衛,1 /共2層,52.56,35.39,--,--萬,24.5萬,1290萬,600台灣嘉義市東區文雅街,23.4837986,120.487306,文雅里
10403(實價),透天厝,嘉義市嘉義市松江三街91~120號,30.7,4房/2廳/3衛,1 /共3層,42.07,18.76,--,--萬,10.3萬,435萬,600台灣嘉義市西區松江三街120號,23.4928684,120.4415975,新厝里
10403(實價),店面(店鋪),嘉義市嘉義市八德路271~300號,1.2,4房/3廳/3衛,1 /共3層,52.68,23.6,--,--萬,27.1萬,1430萬,600台灣嘉義市西區八德路300號,23.490958,120.430367,保安里
10403(實價),華廈(含車位),嘉義市嘉義市竹子腳1~30號,22.6,3房/2廳/2衛,9 /共10層,48.49,8.49,--,--萬,5.2萬,250萬,600台灣嘉義市西區竹子腳巷21號,23.4943783,120.3974321,竹村里
10403(實價),透天厝,嘉義市嘉義市世賢路一段601~630號,35.6,2房/1廳/1衛,1 /共1層,12.71,32.67,--,--萬,48.9萬,620萬,600台灣嘉義市西區世賢路一段601號,23.4921739,120.4303935,保安里
10403(實價),住宅大樓(含車位),嘉義市嘉義市興達路691~720號,20.3,3房/2廳/2衛,7 /共14層,41.88,5.06,--,--萬,8.5萬,357萬,600台灣嘉義市西區興達路720號,23.484763,120.4253362,福安里
10403(實價),住宅大樓(含車位),嘉義市嘉義市大雅路二段421~450號,19.3,4房/2廳/2衛,12 /共16層,56.69,4.98,--,--萬,10.2萬,578萬,600台灣嘉義市東區大雅路二段421號,23.4773156,120.4734091,長竹里
10403(實價),華廈,嘉義市嘉義市民樂街61~90號,21.2,3房/2廳/2衛,6 /共7層,35.23,5.22,--,--萬,9.4萬,330萬,600台灣嘉義市東區民樂街61號,23.4812002,120.4583705,東興里
10403(實價),透天厝,嘉義市嘉義市永春一街1~30號,9.8,5房/3廳/3衛,1 /共3層,54.26,34.79,--,--萬,16.9萬,916萬,600台灣嘉義市西區永春一街30號,23.4776669,120.4265968,西平里
10403(實價),透天厝,嘉義市嘉義市義教東路31~60號,8.8,5房/2廳/4衛,1 /共3層,62.27,31.46,--,--萬,15.7萬,980萬,600台灣嘉義市東區義教東路60號,23.4946364,120.4680834,新店里
10403(實價),住宅大樓(含車位),嘉義市嘉義市興村街61~90號,23.8,2房/2廳/1衛,5 /共15層,29.74,3.72,--,--萬,7.9萬,235萬,600台灣嘉義市東區興村街47號,23.4551162,120.4576823,興村里
10403(實價),透天厝,嘉義市嘉義市吳鳳南路521巷16弄31~60號,33.9,0房/0廳/0衛,1 /共3層,51.36,18.15,--,--萬,6.8萬,350萬,600台灣嘉義市東區吳鳳南路521巷16弄70號,23.4624708,120.4590044,安寮里
10403(實價),透天厝,嘉義市嘉義市五福街185巷1~30號,37.3,3房/2廳/2衛,1 /共2層,26.65,20.57,--,--萬,12.3萬,329萬,600台灣嘉義市東區五福街185巷30號,23.4886689,120.469422,王田里
10403(實價),透天厝,嘉義市嘉義市世賢路四段391~420號,3.7,5房/2廳/4衛,1 /共4層,70.15,34.49,--,--萬,22.8萬,1600萬,600台灣嘉義市西區阿里山公路392號,23.4636318,120.4502301,美源里
10403(實價),住宅大樓,嘉義市嘉義市玉山路240巷1~30號,20.7,2房/1廳/1衛,6 /共12層,19.93,1.72,--,--萬,9萬,180萬,600台灣嘉義市西區玉山路1號,23.473261,120.4319371,磚瑤里
10403(實價),透天厝,嘉義市嘉義市老吸街31巷1~30號,45,3房/1廳/1衛,1 /共1層,17.52,22.08,--,--萬,12.6萬,220萬,600台灣嘉義市西區老吸街31巷1號,23.4715767,120.4368048,新西里
10403(實價),透天厝,嘉義市嘉義市德安路91~120號,23.5,7房/3廳/6衛,1 /共5層,88.47,31.16,--,--萬,12.1萬,1070萬,600台灣嘉義市西區德安路120號,23.4841663,120.4293902,保福里
10403(實價),住宅大樓,嘉義市嘉義市興達路541~570號,20.9,3房/2廳/2衛,9 /共12層,34.67,4.17,--,--萬,9.5萬,328萬,600台灣嘉義市西區興達路543號,23.4849038,120.4292597,保福里
10403(實價),住宅大樓,嘉義市嘉義市友愛路481~510號,15.3,2房/1廳/1衛,4 /共12層,26.54,2.92,--,--萬,8.7萬,230萬,600台灣嘉義市西區友愛路510號,23.4886401,120.4349389,保安里
10403(實價),住宅大樓(含車位),嘉義市嘉義市興達路691~720號,20.3,3房/2廳/2衛,7 /共14層,38.11,4.57,--,--萬,9.1萬,348萬,600台灣嘉義市西區興達路720號,23.484763,120.4253362,福安里
10403(實價),住宅大樓,嘉義市嘉義市友愛路481~510號,15.3,3房/2廳/2衛,8 /共12層,32.81,3.75,--,--萬,9.4萬,310萬,600台灣嘉義市西區友愛路510號,23.4886401,120.4349389,保安里
10403(實價),華廈,嘉義市嘉義市溫州二街91~120號,23.3,1房/0廳/1衛,4 /共6層,10.63,2.17,--,--萬,6.1萬,65萬,600台灣嘉義市西區溫州二街106號,23.4643282,120.4368017,福民里
10403(實價),華廈,嘉義市嘉義市嘉北街97巷18弄1~30號,22.3,4房/2廳/2衛,2 /共7層,42.91,8.07,--,--萬,8.9萬,380萬,600台灣嘉義市東區嘉北街30號,23.4938508,120.4556015,仁義里
10403(實價),透天厝,嘉義市嘉義市過溪271~300號,37.8,5房/1廳/4衛,1 /共2層,27.61,26.92,--,--萬,18.1萬,500萬,600台灣嘉義市東區過溪41號,23.4515886,120.4558931,興村里
10403(實價),華廈(含車位),嘉義市嘉義市友孝路31~60號,20.6,3房/2廳/2衛,2 /共7層,37.68,6.66,--,--萬,9.7萬,365萬,600台灣嘉義市西區友孝路60號,23.4809912,120.4356495,竹圍里
10403(實價),透天厝,嘉義市嘉義市保安一路413巷31~60號,0.6,4房/2廳/3衛,1 /共4層,67.68,33.88,--,--萬,13.8萬,936萬,600台灣嘉義市西區保安一路60號,23.4937234,120.4406487,新厝里
10403(實價),華廈,嘉義市嘉義市康樂街211~240號,23.2,2房/2廳/1衛,5 /共6層,23.4,4,--,--萬,9.4萬,220萬,600台灣嘉義市西區康樂街211號,23.4744416,120.4437666,新富里
10403(實價),住宅大樓,嘉義市嘉義市世賢路一段511~540號,15.7,3房/2廳/2衛,2 /共14層,33.03,3.31,--,--萬,8.2萬,270萬,600台灣嘉義市西區世賢路一段511號,23.4937076,120.4327305,保生里
10403(實價),住宅大樓,嘉義市嘉義市小雅路181~210號,21.8,1房/0廳/1衛,5 /共16層,11.95,1.44,--,--萬,5.9萬,70萬,600台灣嘉義市東區小雅路185號,23.4726044,120.4740688,蘭潭里
10403(實價),公寓,嘉義市嘉義市興村里35鄰溪興街153巷12弄1~30號,32.3,3房/1廳/2衛,5 /共5層,33.04,9.95,--,--萬,4.3萬,142萬,找不到位址,無,無,無
10403(實價),住宅大樓(含車位),嘉義市嘉義市博東路91~120號,17,4房/2廳/2衛,11 /共22層,53.86,5.6,--,--萬,8萬,430萬,600台灣嘉義市東區博東路24-80號,23.4905823,120.4615667,太平里
10403(實價),華廈,嘉義市嘉義市文雅街116巷1~30號,18.8,3房/2廳/2衛,6 /共9層,39.42,6.41,--,--萬,10.8萬,426萬,600台灣嘉義市東區文雅街140巷11號,23.4840615,120.4853228,文雅里
10403(實價),店面(店鋪),嘉義市嘉義市文化路1~30號,7.6,3房/2廳/4衛,1 /共4層,76.14,39.48,--,--萬,25萬,1900萬,600台灣嘉義市西區垂楊路402號,23.4741274,120.4497741,文化里
10403(實價),透天厝,嘉義市嘉義市林森東路269巷1弄1~30號,34,4房/2廳/2衛,1 /共2層,37.51,28.13,--,--萬,11.2萬,420萬,600台灣嘉義市東區林森東路269巷1弄1號,23.4905219,120.4657297,新店里
10403(實價),住宅大樓,嘉義市嘉義市國揚一街1~30號,20.2,4房/2廳/2衛,5 /共12層,49.29,0,--,--萬,4.6萬,225萬,600台灣嘉義市西區國揚一街16號,23.4871555,120.4283775,保福里
10403(實價),透天厝,嘉義市嘉義市長榮街151~180號,39.3,4房/2廳/3衛,1 /共2層,40.85,24.5,--,--萬,13.5萬,550萬,600台灣嘉義市東區長榮街151號,23.483952,120.4532269,北門里
10403(實價),透天厝,嘉義市嘉義市新榮路181~210號,25.4,8房/5廳/5衛,1 /共5層,41.99,0,--,--萬,6萬,250萬,600台灣嘉義市西區新榮路181號,23.4750281,120.4445124,新富里
10403(實價),透天厝,嘉義市嘉義市宣信街111巷31~60號,41.3,2房/2廳/1衛,1 /共2層,20.75,15.13,--,--萬,7.2萬,150萬,600台灣嘉義市東區宣信街31號,23.4650927,120.46362,芳安里
10403(實價),住宅大樓,嘉義市嘉義市友愛路481~510號,15.3,3房/2廳/2衛,12 /共12層,34.28,3.75,--,--萬,8.5萬,290萬,600台灣嘉義市西區友愛路510號,23.4886401,120.4349389,保安里
10403(實價),住宅大樓,嘉義市嘉義市南京路61~90號,21.3,3房/2廳/2衛,4 /共12層,37.76,3.76,--,--萬,6.1萬,230萬,600台灣嘉義市西區南京路61號,23.456272,120.44052,湖內里
10403(實價),套房,嘉義市嘉義市小雅路181~210號,21.8,1房/1廳/1衛,4 /共16層,11.82,1.4,--,--萬,5.3萬,63萬,600台灣嘉義市東區小雅路185號,23.4726044,120.4740688,蘭潭里
10403(實價),透天厝,嘉義市嘉義市立仁路10巷1~30號,3.4,19房/0廳/19衛,1 /共4層,128.51,52.03,--,--萬,17.9萬,2300萬,600台灣嘉義市東區立仁路141-1號,23.4641073,120.4622139,芳安里
10403(實價),透天厝,嘉義市嘉義市頂福街42巷1~30號,1.2,4房/2廳/3衛,1 /共3層,41.65,19.97,--,--萬,16萬,666萬,找不到位址,無,無,無
10403(實價),透天厝,嘉義市嘉義市自強街84巷85弄1~30號,37.1,4房/2廳/3衛,1 /共2層,30.75,20.57,--,--萬,7.8萬,240萬,600台灣嘉義市西區自強街84巷30號,23.4655348,120.4217281,劉厝里
10403(實價),透天厝,嘉義市嘉義市福州八街1~30號,11.1,3房/2廳/3衛,1 /共3層,51.51,21.48,--,--萬,14.8萬,760萬,600台灣嘉義市西區福州八街13號,23.4638241,120.4310264,福民里
10403(實價),住宅大樓,嘉義市嘉義市民權路361~390號,18,1房/0廳/1衛,11 /共12層,14.97,1.23,--,--萬,7.3萬,109萬,600台灣嘉義市東區民權路361號,23.4824481,120.4508026,中央里
10403(實價),透天厝,嘉義市嘉義市興村里溪興街231巷22弄1~30號,30.9,5房/2廳/3衛,1 /共2層,55.29,62.32,--,--萬,17.2萬,950萬,600台灣嘉義市東區溪興街231巷22弄18號,23.4532015,120.4552755,興村里
10403(實價),住宅大樓,嘉義市嘉義市興達路481~510號,20.3,3房/2廳/2衛,14 /共16層,34.22,3.53,--,--萬,8.8萬,300萬,600台灣嘉義市西區興達路480號,23.484986,120.431949,竹圍里
10403(實價),華廈,嘉義市嘉義市中山路1~30號,34.8,3房/2廳/2衛,6 /共7層,36.08,8.2,--,--萬,10萬,360萬,600台灣嘉義市東區中山路46號,23.4825597,120.4608711,中山里
10403(實價),住宅大樓,嘉義市嘉義市小雅路181~210號,21.8,3房/1廳/1衛,8 /共16層,37.07,4.43,--,--萬,4.9萬,180萬,600台灣嘉義市東區小雅路185號,23.4726044,120.4740688,蘭潭里
10403(實價),住宅大樓,嘉義市嘉義市德安路1~30號,20.7,3房/1廳/1衛,9 /共14層,24.71,2.14,--,--萬,8.1萬,200萬,600台灣嘉義市西區德安路3號,23.4841059,120.4334466,竹圍里
10403(實價),華廈,嘉義市嘉義市永福三街1~30號,22.3,3房/1廳/2衛,2 /共7層,27.68,6.48,--,--萬,9萬,250萬,600台灣嘉義市西區永福三街30號,23.4736996,120.4249398,磚磘里
10403(實價),透天厝,嘉義市嘉義市義教街613巷121~150號,0.8,4房/2廳/3衛,1 /共4層,63.75,38.72,--,--萬,18.8萬,1198萬,600台灣嘉義市東區義教街613巷27號,23.4974333,120.4573681,頂庄里
10403(實價),套房,嘉義市嘉義市忠順一街1~30號,22,1房/0廳/1衛,7 /共8層,10.91,1.49,--,--萬,6.4萬,70萬,600台灣嘉義市西區忠順一街30號,23.4842808,120.4345523,竹圍里
10403(實價),住宅大樓,嘉義市嘉義市永安街331~360號,10.4,3房/2廳/2衛,2 /共12層,56.66,9.98,--,--萬,9.5萬,536萬,600台灣嘉義市西區永安街331號,23.4703467,120.4464733,導明里
10403(實價),華廈,嘉義市嘉義市嘉北街97巷1~30號,23.3,3房/2廳/1衛,3 /共7層,28.65,4.59,--,--萬,9.2萬,265萬,600台灣嘉義市東區嘉北街30號,23.4938508,120.4556015,仁義里
10403(實價),透天厝,嘉義市嘉義市信興街78巷1~30號,34.5,4房/2廳/4衛,1 /共3層,39.35,18.15,--,--萬,13萬,510萬,600台灣嘉義市東區信興街78巷16號,23.4652788,120.4596551,頂寮里
10403(實價),華廈,嘉義市嘉義市忠順一街1~30號,22,2房/1廳/1衛,2 /共8層,15.09,2.04,--,--萬,6.4萬,97萬,600台灣嘉義市西區忠順一街30號,23.4842808,120.4345523,竹圍里
10403(實價),華廈,嘉義市嘉義市金龍街31~60號,21.3,3房/2廳/2衛,1 /共7層,34.54,7.58,--,--萬,6.8萬,236萬,600台灣嘉義市東區金龍街33-35號,23.4789667,120.4707766,東川里
10403(實價),住宅大樓,嘉義市嘉義市友孝路271~300號,15.3,3房/2廳/2衛,10 /共12層,33.6,4.03,--,--萬,9.8萬,330萬,600台灣嘉義市西區友孝路300號,23.4879919,120.4353601,保安里
10403(實價),透天厝(含車位),嘉義市嘉義市大雅路一段368巷50弄31~60號,0.6,4房/2廳/4衛,1 /共3層,88.65,67.9,7.56,--萬,18.6萬,1650萬,600台灣嘉義市東區大雅路一段32號,23.4802408,120.5032865,盧厝里
10403(實價),套房,嘉義市嘉義市蘭井街151~180號,24.2,1房/1廳/1衛,1 /共6層,9.12,1.37,--,--萬,9.6萬,88萬,600台灣嘉義市東區蘭井街155號,23.4775913,120.4516521,中央里
10403(實價),套房,嘉義市嘉義市蘭井街301~330號,19.8,1房/1廳/1衛,6 /共12層,11.7,1.03,--,--萬,10.2萬,119萬,600台灣嘉義市西區蘭井街330號,23.4769852,120.4435899,書院里
10403(實價),透天厝,嘉義市嘉義市新民路416巷23弄1~30號,23.8,4房/2廳/3衛,1 /共3層,62.58,34.18,--,--萬,13.6萬,850萬,600台灣嘉義市西區新民路416巷23弄1號,23.4596854,120.4410674,光路里
10403(實價),透天厝,嘉義市嘉義市新建街95巷31~60號,38.1,4房/2廳/3衛,1 /共3層,41.6,35.7,--,--萬,13.5萬,560萬,600台灣嘉義市西區新建街95巷85號,23.4701281,120.4375134,車店里
10403(實價),住宅大樓,嘉義市嘉義市自由路481~510號,20.8,2房/1廳/1衛,12 /共16層,28.15,2.32,--,--萬,9.8萬,275萬,600台灣嘉義市西區自由路510號,23.4930581,120.4317377,保生里
10403(實價),華廈(含車位),嘉義市嘉義市雙竹街1~30號,21.3,3房/2廳/1衛,6 /共7層,40.02,7.6,--,--萬,9.7萬,390萬,600台灣嘉義市西區雙竹街12-48號,23.4849945,120.4388116,竹圍里
10403(實價),透天厝,嘉義市嘉義市圓福街118巷2弄61~90號,0.3,4房/3廳/5衛,1 /共3層,77.03,35.39,--,--萬,19.7萬,1520萬,600台灣嘉義市東區圓福街118巷2弄61號,23.488745,120.467621,王田里
10403(實價),透天厝,嘉義市嘉義市立仁路42巷1~30號,0.2,0房/0廳/0衛,1 /共4層,63.51,26.98,--,--萬,14.6萬,930萬,600台灣嘉義市東區立仁路141-1號,23.4641073,120.4622139,芳安里
10403(實價),透天厝,嘉義市嘉義市立仁路42巷1~30號,0.2,0房/0廳/0衛,1 /共4層,57.34,28.5,--,--萬,15萬,860萬,600台灣嘉義市東區立仁路141-1號,23.4641073,120.4622139,芳安里
10403(實價),透天厝,嘉義市嘉義市立仁路42巷1~30號,0.2,0房/0廳/0衛,1 /共4層,55.63,28.19,--,--萬,15.7萬,876萬,600台灣嘉義市東區立仁路141-1號,23.4641073,120.4622139,芳安里
10403(實價),透天厝,嘉義市嘉義市立仁路42巷1~30號,0.2,0房/0廳/0衛,1 /共4層,66.63,27.89,--,--萬,15.2萬,1012萬,600台灣嘉義市東區立仁路141-1號,23.4641073,120.4622139,芳安里
10403(實價),店面(店鋪),嘉義市嘉義市文化路211~240號,46.4,5房/2廳/5衛,1 /共2層,49.36,19.66,--,--萬,49.8萬,2460萬,600台灣嘉義市東區文化路211號,23.4817831,120.4490584,中央里
10403(實價),透天厝,嘉義市嘉義市義教街117巷61~90號,38.2,1房/1廳/1衛,1 /共1層,15.06,30.86,--,--萬,16.6萬,250萬,600台灣嘉義市東區義教街117巷63號,23.4943518,120.4660376,新店里
10403(實價),透天厝,嘉義市嘉義市玉山路931~960號,1.2,4房/2廳/3衛,1 /共4層,65.03,34.57,--,--萬,15.4萬,1000萬,600台灣嘉義市西區玉山路960號,23.4687193,120.406811,頭港里
10403(實價),住宅大樓,嘉義市嘉義市世賢路一段631~660號,20.7,3房/2廳/2衛,12 /共12層,42.72,3.85,--,--萬,8.9萬,380萬,600台灣嘉義市西區世賢路一段630號,23.4931556,120.4301178,保安里
10403(實價),華廈,嘉義市嘉義市國揚四街1~30號,22,3房/2廳/2衛,6 /共6層,40.57,8.05,--,--萬,9.4萬,380萬,600台灣嘉義市西區國揚一街101號,23.4868788,120.4263032,福安里
10403(實價),住宅大樓(含車位),嘉義市嘉義市德明路151~180號,20.8,3房/2廳/2衛,4 /共12層,37.15,3.06,--,--萬,8.9萬,330萬,600台灣嘉義市西區德明路151號,23.483611,120.4316578,竹圍里
10403(實價),透天厝,嘉義市嘉義市立仁路42巷1~30號,0.2,0房/0廳/0衛,1 /共4層,54.24,26.68,--,--萬,19.5萬,1058萬,600台灣嘉義市東區立仁路141-1號,23.4641073,120.4622139,芳安里
10403(實價),住宅大樓,嘉義市嘉義市德明路61~90號,19.6,2房/1廳/1衛,12 /共18層,49.56,4.15,--,--萬,5.2萬,260萬,600台灣嘉義市西區德明路90號,23.4814836,120.4320387,福全里
10403(實價),透天厝,嘉義市嘉義市忠孝路798巷1~30號,7.2,4房/2廳/4衛,1 /共3層,51.86,33.57,--,--萬,15.2萬,788萬,600台灣嘉義市東區忠孝路522-1號,23.4939767,120.452811,仁義里
10403(實價),透天厝,嘉義市嘉義市東義路109巷16弄1~30號,20.8,4房/3廳/5衛,1 /共4層,92.12,47.8,--,--萬,16.5萬,1520萬,600台灣嘉義市東區東義路109巷1號,23.4950314,120.4688871,後庄里
10403(實價),華廈,嘉義市嘉義市泰瑞四街61~90號,16.8,3房/2廳/2衛,3 /共6層,41.7,7.66,--,--萬,8.6萬,358萬,600台灣嘉義市西區泰瑞四街78號,23.4854296,120.4269669,福安里
10403(實價),住宅大樓(含車位),嘉義市嘉義市新榮路35巷1~30號,10.4,4房/2廳/2衛,3 /共14層,64.73,11.18,--,--萬,8.5萬,550萬,600台灣嘉義市西區新榮路1號,23.4689591,120.4451514,致遠里
10403(實價),透天厝,嘉義市嘉義市友忠路827巷5弄1~30號,45.4,2房/1廳/1衛,1 /共1層,22.81,33.58,--,--萬,16.6萬,378萬,600台灣嘉義市西區友忠路827巷2弄30號,23.4873699,120.4416715,重興里
10403(實價),華廈,嘉義市嘉義市延平街391~420號,18.3,3房/2廳/1衛,3 /共8層,41.82,4.2,--,--萬,7.1萬,298萬,600台灣嘉義市西區延平街420號,23.4762336,120.443003,書院里
10403(實價),透天厝,嘉義市嘉義市光彩街211~240號,21.3,4房/2廳/4衛,1 /共5層,35.33,7.26,--,--萬,15.1萬,535萬,600台灣嘉義市東區光彩街185號,23.4786354,120.454195,民族里
10403(實價),套房,嘉義市嘉義市北鎮街34巷1~30號,24.8,1房/1廳/1衛,6 /共6層,17.36,3.73,--,--萬,7.5萬,130萬,600台灣嘉義市西區北鎮街25巷21號,23.4883155,120.4322644,竹圍里
10403(實價),住宅大樓(含車位),嘉義市嘉義市博東路91~120號,17,3房/2廳/2衛,8 /共22層,46.84,4.62,--,--萬,6.6萬,308萬,600台灣嘉義市東區博東路24-80號,23.4905823,120.4615667,太平里
10403(實價),住宅大樓,嘉義市嘉義市德明路61~90號,19.6,4房/2廳/2衛,14 /共18層,49.18,4.27,--,--萬,8.7萬,428萬,600台灣嘉義市西區德明路90號,23.4814836,120.4320387,福全里
10403(實價),透天厝,嘉義市嘉義市保安一路31~60號,0.2,4房/3廳/5衛,1 /共3層,63.66,28.74,--,--萬,18.5萬,1180萬,600台灣嘉義市西區保安一路60號,23.4937234,120.4406487,新厝里
10402(實價),店面(店鋪),嘉義市嘉義市文化路297巷1~30號,0,10房/8廳/13衛,1 /共5層,191.26,31.95,--,--萬,0萬,3674萬,600台灣嘉義市西區垂楊路402號,23.4741274,120.4497741,文化里
10403(實價),透天厝,嘉義市嘉義市保安一路361~390號,0.8,4房/1廳/4衛,1 /共4層,84.01,38.12,--,--萬,18.5萬,1550萬,600台灣嘉義市西區保安一路361號,23.4912002,120.4319529,保安里
10403(實價),住宅大樓(含車位),嘉義市嘉義市永安街331~360號,10.4,3房/2廳/2衛,7 /共12層,56.66,9.98,--,--萬,9.2萬,520萬,600台灣嘉義市西區永安街331號,23.4703467,120.4464733,導明里
10403(實價),透天厝,嘉義市嘉義市友忠路931~960號,6,5房/2廳/5衛,1 /共4層,57.63,36.12,--,--萬,18.2萬,1050萬,600台灣嘉義市西區友忠路931號,23.4893478,120.4427651,重興里
10403(實價),透天厝,嘉義市嘉義市光正街59巷1~30號,42.9,3房/1廳/1衛,1 /共1層,14.24,25.41,--,--萬,15.4萬,220萬,600台灣嘉義市東區光正街1號,23.4673603,120.4695777,蘭潭里
10403(實價),華廈,嘉義市嘉義市杭州四街61~90號,26.2,3房/1廳/2衛,7 /共7層,30.27,7.66,--,--萬,10.9萬,330萬,600台灣嘉義市西區杭州四街42號,23.4672318,120.4450469,美源里
10403(實價),透天厝,嘉義市嘉義市保成路47巷1~30號,0.5,5房/2廳/3衛,1 /共4層,80.79,0,--,--萬,4.7萬,381萬,600台灣嘉義市東區保成路81巷46號,23.502603,120.4549625,後湖里
10402(實價),店面(店鋪),嘉義市嘉義市文化路297巷1~30號,0,5房/4廳/7衛,1 /共5層,111.57,36.79,--,--萬,30.6萬,3414萬,600台灣嘉義市西區垂楊路402號,23.4741274,120.4497741,文化里
10402(實價),店面(店鋪),嘉義市嘉義市文化路297巷1~30號,0,0房/0廳/1衛,1 /共1層,20.34,31.95,--,--萬,129.9萬,2642萬,600台灣嘉義市西區垂楊路402號,23.4741274,120.4497741,文化里
10402(實價),透天厝,嘉義市嘉義市義教街750巷1~30號,40.5,3房/2廳/2衛,1 /共2層,26.83,22.69,--,--萬,11.2萬,300萬,600台灣嘉義市東區義教街30號,23.4934882,120.4678217,新店里
10402(實價),透天厝,嘉義市嘉義市軍輝路133巷1~30號,25.8,4房/2廳/3衛,1 /共2層,38.59,26.92,--,--萬,3.2萬,124萬,600台灣嘉義市東區軍輝路91巷1號,23.4560228,120.4618719,興仁里
10402(實價),透天厝,嘉義市嘉義市林森東路163巷121~150號,41.7,4房/2廳/2衛,1 /共2層,35.39,62.32,--,--萬,26.3萬,930萬,600台灣嘉義市東區林森東路163巷95號,23.4891894,120.4605407,太平里
10402(實價),住宅大樓(含車位),嘉義市嘉義市林森東路721~750號,11.9,3房/2廳/2衛,7 /共13層,52.97,13.11,--,--萬,8.9萬,470萬,600台灣嘉義市東區林森東路750號,23.4923366,120.4778693,圳頭里
10402(實價),住宅大樓(含車位),嘉義市嘉義市興業西路181~210號,10.3,3房/2廳/2衛,3 /共14層,53.75,9.75,--,--萬,9.9萬,530萬,600台灣嘉義市西區興業西路136-140號,23.4681898,120.4421177,自強里
10402(實價),透天厝,嘉義市嘉義市保義路151~180號,0.2,4房/3廳/4衛,1 /共3層,58.04,28.29,--,--萬,16.7萬,968萬,600台灣嘉義市東區保仁三街1號,23.503521,120.4533602,後湖里
10402(實價),透天厝,嘉義市嘉義市保義路151~180號,0.2,5房/2廳/5衛,1 /共4層,63.35,26.18,--,--萬,15.2萬,965萬,600台灣嘉義市東區保仁三街1號,23.503521,120.4533602,後湖里
10402(實價),透天厝,嘉義市嘉義市保義路151~180號,0.2,4房/3廳/4衛,1 /共3層,55.23,25.58,--,--萬,17.2萬,950萬,600台灣嘉義市東區保仁三街1號,23.503521,120.4533602,後湖里
10402(實價),店面(店鋪),嘉義市嘉義市友愛路481~510號,9.3,3房/2廳/3衛,1 /共4層,55.88,25.11,--,--萬,18.8萬,1050萬,600台灣嘉義市西區友愛路510號,23.4886401,120.4349389,保安里
10402(實價),套房,嘉義市嘉義市中正路391~420號,18.9,1房/0廳/1衛,11 /共11層,9.83,0.41,--,--萬,8.1萬,80萬,600台灣嘉義市西區中正路383-399號,23.4788021,120.4495005,文化里
10402(實價),透天厝,嘉義市嘉義市保仁三街1~30號,0.2,4房/3廳/4衛,1 /共3層,52.3,31.58,--,--萬,14.5萬,760萬,600台灣嘉義市東區保仁三街1號,23.503521,120.4533602,後湖里
10402(實價),透天厝,嘉義市嘉義市保仁三街1~30號,0.2,4房/3廳/4衛,1 /共3層,58.62,33.09,--,--萬,13.1萬,768萬,600台灣嘉義市東區保仁三街1號,23.503521,120.4533602,後湖里
10402(實價),住宅大樓,嘉義市嘉義市彌陀路151~180號,18.9,3房/1廳/1衛,14 /共20層,38.31,3.12,--,--萬,7.7萬,295萬,600台灣嘉義市東區彌陀路180號,23.4724381,120.4638868,短竹里
10402(實價),透天厝,嘉義市嘉義市保仁三街1~30號,0.2,4房/3廳/4衛,1 /共3層,54.32,30.98,--,--萬,14.2萬,770萬,600台灣嘉義市東區保仁三街1號,23.503521,120.4533602,後湖里
10402(實價),透天厝,嘉義市嘉義市保仁三街1~30號,0.2,5房/3廳/5衛,1 /共4層,76.09,30.69,--,--萬,16.1萬,1228萬,600台灣嘉義市東區保仁三街1號,23.503521,120.4533602,後湖里
10402(實價),套房,嘉義市嘉義市東洋新?271~300號,29.3,1房/1廳/1衛,2 /共5層,13.02,3.37,--,--萬,10.4萬,135萬,600台灣嘉義市東區文雅街,23.4837986,120.487306,文雅里
10402(實價),透天厝,嘉義市嘉義市北榮街151~180號,56.7,2房/2廳/1衛,1 /共2層,19.27,13.01,--,--萬,26.5萬,510萬,600台灣嘉義市西區北榮街180號,23.4805071,120.4442918,番社里
10402(實價),透天厝,嘉義市嘉義市保愛二街61~90號,0.2,4房/3廳/5衛,1 /共4層,111.27,52.33,--,--萬,14.7萬,1638萬,600台灣嘉義市東區保愛二街90號,23.5027542,120.4539096,後湖里
10402(實價),住宅大樓(含車位),嘉義市嘉義市志昇街91~120號,10.3,3房/2廳/2衛,10 /共14層,56.58,8.95,--,--萬,9.6萬,545萬,600台灣嘉義市西區志昇街79號,23.4691128,120.4430855,翠岱里
10402(實價),住宅大樓,嘉義市嘉義市彌陀路121~150號,18.9,3房/2廳/2衛,11 /共20層,39.96,2.96,--,--萬,11.3萬,450萬,600台灣嘉義市東區彌陀路121號,23.4666592,120.4667133,芳草里
10402(實價),套房,嘉義市嘉義市大雅路二段433巷28弄31~60號,20.1,1房/1廳/1衛,7 /共12層,11.15,1.11,--,--萬,7.4萬,83萬,600台灣嘉義市東區大雅路二段433巷36-1號,23.4763949,120.4727447,長竹里
10402(實價),公寓,嘉義市嘉義市興溪街153巷30弄31~60號,32.3,2房/2廳/1衛,4 /共5層,16.2,5.03,--,--萬,3.5萬,56萬,600台灣嘉義市東區溪興街153巷30弄16號,23.453869,120.4560725,興村里
10402(實價),透天厝,嘉義市嘉義市軍輝路162巷31~60號,38.4,4房/2廳/2衛,1 /共2層,25.68,22.39,--,--萬,17.7萬,455萬,600台灣嘉義市東區軍輝路162巷31號,23.4568189,120.4607153,興仁里
10402(實價),華廈,嘉義市嘉義市後驛街1~30號,22.1,3房/2廳/2衛,1 /共6層,39.39,8,--,--萬,9.4萬,370萬,600台灣嘉義市西區後驛街30號,23.4828427,120.4415476,後驛里
10402(實價),透天厝,嘉義市嘉義市文心街91~120號,1.1,4房/2廳/5衛,1 /共4層,87.21,40.62,--,--萬,15.9萬,1390萬,600台灣嘉義市東區文心街109號,23.4815881,120.4859382,文雅里
10402(實價),套房,嘉義市嘉義市蘭州一街151~180號,21.5,1房/1廳/1衛,7 /共7層,13.09,2.11,--,--萬,6.9萬,90萬,600台灣嘉義市西區蘭州一街151號,23.4672137,120.4324755,車店里
10402(實價),透天厝,嘉義市嘉義市後驛街91~120號,1.3,4房/1廳/4衛,1 /共4層,84.71,37.81,--,--萬,18.9萬,1600萬,600台灣嘉義市西區後驛街93號,23.4809755,120.4402244,後驛里
10402(實價),住宅大樓,嘉義市嘉義市南京路15巷1~30號,20.4,3房/2廳/2衛,7 /共12層,30.14,4.46,--,--萬,7.6萬,230萬,600台灣嘉義市西區南京路30號,23.4562023,120.4426332,獅子里
10402(實價),華廈,嘉義市嘉義市永春三街1~30號,22.5,3房/2廳/2衛,8 /共10層,42.3,6.22,--,--萬,9.5萬,400萬,600台灣嘉義市西區永春三街32號,23.4783622,120.4259589,西平里
10402(實價),透天厝,嘉義市嘉義市東義路109巷1~30號,0.3,3房/3廳/4衛,1 /共3層,63.13,32.37,--,--萬,15.2萬,960萬,600台灣嘉義市東區東義路109巷1號,23.4950314,120.4688871,後庄里
10402(實價),華廈,嘉義市嘉義市新民路707巷1~30號,17.8,1房/1廳/1衛,5 /共7層,22.73,4.39,--,--萬,10.1萬,230萬,600台灣嘉義市西區新民路707巷2號,23.4690412,120.4395523,垂楊里
10402(實價),套房,嘉義市嘉義市溫州二街91~120號,23.3,1房/1廳/1衛,5 /共6層,10,1.92,--,--萬,5.6萬,56萬,600台灣嘉義市西區溫州二街106號,23.4643282,120.4368017,福民里
10402(實價),透天厝,嘉義市嘉義市國聖一街1~30號,0.2,5房/3廳/5衛,1 /共4層,114.14,49.91,--,--萬,15.6萬,1780萬,600台灣嘉義市西區國聖一街29號,23.4856137,120.429261,保福里
10402(實價),透天厝,嘉義市嘉義市重慶二街91~120號,19.3,6房/2廳/3衛,1 /共3層,46.41,206,--,--萬,17.2萬,800萬,600台灣嘉義市西區重慶二街120號,23.459224,120.4323242,紅瓦里
10402(實價),透天厝,嘉義市嘉義市日新街181~210號,3.4,4房/2廳/3衛,1 /共4層,100.55,43.86,--,--萬,24.7萬,2480萬,600台灣嘉義市東區日新街210號,23.4703177,120.4691987,短竹里
10402(實價),透天厝,嘉義市嘉義市德明路30巷31~60號,45.6,3房/2廳/1衛,1 /共2層,22.39,22.39,--,--萬,13.4萬,300萬,600台灣嘉義市西區德明路40號,23.4804358,120.4318721,福全里
10402(實價),透天厝,嘉義市嘉義市保義路121~150號,33.2,0房/0廳/3衛,1 /共3層,32.04,17.75,--,--萬,11.2萬,360萬,600台灣嘉義市東區保義路146號,23.5028988,120.4531787,後湖里
10402(實價),套房,嘉義市嘉義市林森西路1~30號,31.1,1房/1廳/1衛,11 /共12層,12.3,2.01,--,--萬,14.2萬,175萬,600台灣嘉義市東區林森西路1號,23.4857906,120.4529263,北門里
10402(實價),透天厝,嘉義市嘉義市東義路109巷1~30號,0.5,4房/3廳/5衛,1 /共3層,64.41,47.08,--,--萬,18.4萬,1187萬,600台灣嘉義市東區東義路109巷1號,23.4950314,120.4688871,後庄里
10402(實價),公寓,嘉義市嘉義市北港路31~60號,22.6,2房/1廳/1衛,5 /共5層,20.3,5.91,--,--萬,5.4萬,110萬,600台灣嘉義市西區北港路196-198號,23.4770479,120.4353905,福全里
10402(實價),套房,嘉義市嘉義市興雅路91~120號,21.5,1房/1廳/1衛,9 /共9層,16.06,1.65,--,--萬,8.7萬,140萬,600台灣嘉義市西區興雅路91號,23.4828596,120.4330361,竹圍里
10402(實價),華廈,嘉義市嘉義市南興路241~270號,33.9,3房/2廳/2衛,4 /共6層,31.78,8.5,--,--萬,6.4萬,203萬,600台灣嘉義市東區南興路241號,23.4662573,120.4563033,頂寮里
10402(實價),華廈,嘉義市嘉義市西榮街151~180號,21.8,2房/2廳/2衛,1 /共6層,41.1,7.4,--,--萬,12.4萬,510萬,600台灣嘉義市西區西榮街180號,23.4781491,120.4453078,西榮里
10402(實價),透天厝,嘉義市嘉義市義教街613巷11弄1~30號,27.2,5房/1廳/2衛,1 /共2層,45.8,30.86,--,--萬,8.7萬,400萬,600台灣嘉義市東區義教街613巷11弄30號,23.4976035,120.4578316,頂庄里
10402(實價),透天厝,嘉義市嘉義市彌陀路345巷1~30號,43.3,1房/1廳/1衛,1 /共2層,20.24,16.64,--,--萬,6.8萬,138萬,600台灣嘉義市東區彌陀路225巷30號,23.4677693,120.4658714,芳草里
10402(實價),透天厝,嘉義市嘉義市興南里9鄰吳鳳南路25巷1~30號,46.3,3房/2廳/2衛,1 /共2層,25.56,20.27,--,--萬,13.7萬,350萬,600台灣嘉義市東區吳鳳南路25巷3號,23.4732011,120.4552785,興南里
10402(實價),公寓,嘉義市嘉義市南京路126巷31~60號,29.4,3房/1廳/1衛,5 /共5層,24.9,6.03,--,--萬,4.8萬,120萬,600台灣嘉義市西區南京路31號,23.4560745,120.4422366,獅子里
10402(實價),透天厝,嘉義市嘉義市松江三街63巷1~30號,37.9,4房/2廳/2衛,1 /共2層,23.79,20.87,--,--萬,17.7萬,420萬,600台灣嘉義市西區松江三街50號,23.4929123,120.4435351,湖邊里
10402(實價),透天厝,嘉義市嘉義市彌陀路345巷1~30號,43.3,1房/1廳/1衛,1 /共2層,19.55,17.24,--,--萬,6.1萬,120萬,600台灣嘉義市東區彌陀路225巷30號,23.4677693,120.4658714,芳草里
10402(實價),透天厝,嘉義市嘉義市國聖一街1~30號,0.2,5房/3廳/6衛,1 /共4層,117.42,49.91,--,--萬,16.6萬,1950萬,600台灣嘉義市西區國聖一街29號,23.4856137,120.429261,保福里
10402(實價),華廈,嘉義市嘉義市新建街31~60號,20.8,2房/1廳/1衛,2 /共7層,13.23,2.42,--,--萬,6.4萬,85萬,600台灣嘉義市西區新建街16號,23.468731,120.4387561,垂楊里
10402(實價),透天厝,嘉義市嘉義市蘭井街391~420號,50.8,1房/1廳/1衛,1 /共1層,5.16,5.75,--,--萬,67.9萬,350萬,600台灣嘉義市西區蘭井街318-328號,23.476958,120.4441246,書院里
10402(實價),店面(店鋪),嘉義市嘉義市友忠路991~1020號,17,2房/1廳/1衛,1 /共12層,50.68,7.27,--,--萬,11萬,560萬,600台灣嘉義市西區友忠路991號,23.4910542,120.44262,新厝里
10402(實價),透天厝,嘉義市嘉義市仁愛路261巷31~60號,52.1,2房/1廳/1衛,1 /共1層,14.45,25.41,--,--萬,18.7萬,270萬,600台灣嘉義市西區仁愛路261巷13號,23.4716217,120.4417404,垂楊里
10402(實價),透天厝,嘉義市嘉義市大聖路181~210號,0.8,4房/2廳/3衛,1 /共4層,61.56,41.95,--,--萬,14.9萬,916萬,600台灣嘉義市西區大聖路156號,23.4617412,120.4184082,劉厝里
10402(實價),透天厝,嘉義市嘉義市自強街211~240號,19.2,5房/3廳/5衛,1 /共5層,65.29,23.52,--,--萬,6.9萬,450萬,600台灣嘉義市西區自強街203號,23.4648145,120.4198955,劉厝里
10402(實價),華廈,嘉義市嘉義市民國路151~180號,35.8,3房/2廳/2衛,7 /共7層,41.76,9.89,--,--萬,7.1萬,295萬,600台灣嘉義市東區民國路146號,23.4796154,120.4603115,華南里
10402(實價),透天厝,嘉義市嘉義市友孝路61~90號,25.5,3房/1廳/3衛,1 /共3層,47.01,26.02,--,--萬,17萬,800萬,600台灣嘉義市西區友孝路70號,23.4811874,120.4356667,竹圍里
10402(實價),住宅大樓,嘉義市嘉義市友愛路481~510號,15.3,3房/1廳/2衛,3 /共12層,32.84,3.75,--,--萬,8.2萬,270萬,600台灣嘉義市西區友愛路510號,23.4886401,120.4349389,保安里
10402(實價),華廈,嘉義市嘉義市竹子腳1~30號,22.5,3房/2廳/2衛,3 /共10層,44.57,7.7,--,--萬,5.1萬,226萬,600台灣嘉義市西區竹子腳巷21號,23.4943783,120.3974321,竹村里
10402(實價),華廈,嘉義市嘉義市彌陀路238巷59弄1~30號,25,3房/2廳/2衛,4 /共7層,34.43,7.24,--,--萬,8.1萬,280萬,600台灣嘉義市東區彌陀路238巷7弄5號,23.4740199,120.4632164,短竹里
10402(實價),華廈,嘉義市嘉義市林森東路211巷1~30號,25.1,3房/1廳/2衛,5 /共7層,54.25,8.82,--,--萬,8.3萬,450萬,600台灣嘉義市東區林森東路269巷1弄30號,23.4901012,120.4654374,新店里
10402(實價),公寓(含車位),嘉義市嘉義市林森東路451~480號,25.5,3房/1廳/2衛,1 /共5層,57.46,23.99,--,--萬,4.4萬,250萬,600台灣嘉義市東區林森東路480號,23.491523,120.4698939,圳頭里
10402(實價),套房,嘉義市嘉義市仁愛路1~30號,23.5,1房/1廳/1衛,6 /共7層,13.99,2.59,--,--萬,9.3萬,130萬,600台灣嘉義市西區仁愛路1號,23.4666367,120.4406522,自強里
10402(實價),住宅大樓,嘉義市嘉義市圓福街118巷2弄121~150號,21.8,2房/2廳/1衛,6 /共15層,38.29,6.4,--,--萬,7.1萬,270萬,600台灣嘉義市東區圓福街118巷2弄108號,23.488141,120.467014,王田里
10402(實價),透天厝,嘉義市嘉義市保義路108巷31~60號,38.8,4房/2廳/2衛,1 /共2層,28.54,25.41,--,--萬,11.6萬,332萬,600台灣嘉義市東區保義路108巷25號,23.5017464,120.4536756,後湖里
10402(實價),住宅大樓(含車位),嘉義市嘉義市新生路301~330號,19,3房/1廳/2衛,10 /共13層,32.02,4.3,--,--萬,10.6萬,338萬,600台灣嘉義市東區新生路301號,23.4827383,120.4609195,中山里
10402(實價),透天厝,嘉義市嘉義市貴州街121~150號,29.9,4房/2廳/3衛,1 /共2層,40.32,28.44,--,--萬,18.5萬,745萬,600台灣嘉義市西區蘭州二街83-93號,23.467905,120.4324975,車店里
10402(實價),住宅大樓,嘉義市嘉義市小雅路181~210號,21.7,3房/2廳/1衛,12 /共16層,33.7,4.03,--,--萬,8.5萬,285萬,600台灣嘉義市東區小雅路185號,23.4726044,120.4740688,蘭潭里
10402(實價),住宅大樓,嘉義市嘉義市彌陀路121~150號,18.9,2房/2廳/2衛,16 /共20層,28.54,2.14,--,--萬,7.7萬,220萬,600台灣嘉義市東區彌陀路121號,23.4666592,120.4667133,芳草里
10402(實價),透天厝,嘉義市嘉義市光彩街541~570號,0.7,10房/2廳/12衛,1 /共5層,103.53,27.77,--,--萬,27.8萬,2880萬,600台灣嘉義市西區光彩街541號,23.477635,120.4437435,書院里
10402(實價),住宅大樓,嘉義市嘉義市八德路301~330號,20.3,3房/2廳/1衛,12 /共16層,39.84,4.23,--,--萬,8.7萬,346萬,600台灣嘉義市西區八德路330號,23.4912488,120.4302424,保安里
10402(實價),華廈,嘉義市嘉義市南興路241~270號,33.9,3房/2廳/1衛,3 /共6層,31.34,8.76,--,--萬,5.7萬,180萬,600台灣嘉義市東區南興路241號,23.4662573,120.4563033,頂寮里
10402(實價),住宅大樓,嘉義市嘉義市興達路481~510號,20.3,3房/2廳/2衛,11 /共16層,33.31,3.33,--,--萬,7.4萬,246萬,600台灣嘉義市西區興達路480號,23.484986,120.431949,竹圍里
10402(實價),華廈,嘉義市嘉義市友愛路1~30號,21.7,2房/1廳/1衛,5 /共7層,27.16,4.59,--,--萬,10萬,272萬,600台灣嘉義市西區友愛路30號,23.4921539,120.4441036,湖邊里
10402(實價),透天厝,嘉義市嘉義市廣州街18巷1~30號,25.3,10房/2廳/5衛,1 /共2層,54.65,39.33,--,--萬,13.4萬,735萬,600台灣嘉義市西區廣州街30號,23.4624529,120.4355921,福民里
10402(實價),透天厝,嘉義市嘉義市友忠路827巷45弄31~60號,16.2,3房/2廳/2衛,1 /共3層,20.17,14.52,--,--萬,5.4萬,108萬,600台灣嘉義市西區友忠路827巷2弄32號,23.4874818,120.4416624,重興里
10402(實價),透天厝,嘉義市嘉義市自強街134巷31~60號,36.8,4房/2廳/2衛,1 /共2層,26.23,19.66,--,--萬,11.4萬,300萬,600台灣嘉義市西區自強街31號,23.464875,120.423895,劉厝里
10402(實價),住宅大樓(含車位),嘉義市嘉義市志昇街91~120號,10.3,3房/2廳/2衛,12 /共14層,56.84,8.79,--,--萬,5.3萬,300萬,600台灣嘉義市西區志昇街79號,23.4691128,120.4430855,翠岱里
10402(實價),華廈,嘉義市嘉義市文雅街116巷31~60號,18.7,3房/2廳/2衛,6 /共9層,39.55,6.41,--,--萬,9.6萬,380萬,600台灣嘉義市東區文雅街140巷11號,23.4840615,120.4853228,文雅里
10402(實價),華廈,嘉義市嘉義市民生南路510巷1~30號,23.8,2房/1廳/1衛,7 /共9層,21.78,4.43,--,--萬,8.3萬,180萬,600台灣嘉義市西區民生南路850巷1弄30號,23.4545835,120.4393273,湖內里
10402(實價),透天厝,嘉義市嘉義市重慶二街235巷1~30號,38.3,0房/0廳/0衛,1 /共1層,14.43,27.83,--,--萬,8.3萬,120萬,600台灣嘉義市西區重慶二街242巷2號,23.4589114,120.4298393,紅瓦里
10402(實價),華廈,嘉義市嘉義市林森東路211~240號,25.1,3房/2廳/2衛,5 /共7層,46.22,10.03,--,--萬,5.8萬,268萬,600台灣嘉義市東區林森東路282-286號,23.4882305,120.4621695,太平里
10402(實價),住宅大樓(含車位),嘉義市嘉義市蘭井街331~360號,19.3,3房/2廳/2衛,4 /共16層,48.05,5.87,--,--萬,7.3萬,350萬,600台灣嘉義市西區蘭井街260號,23.4771987,120.4459214,西榮里
10402(實價),華廈,嘉義市嘉義市延平街271~300號,36.9,2房/2廳/1衛,6 /共7層,22.28,4.08,--,--萬,9.9萬,220萬,600台灣嘉義市西區延平街273號,23.4767004,120.4493225,文化里
10402(實價),透天厝,嘉義市嘉義市民生南路850巷1弄31~60號,0.3,4房/3廳/5衛,1 /共3層,77.45,44.17,--,--萬,14.2萬,1100萬,600台灣嘉義市西區民生南路850巷1弄30號,23.4545835,120.4393273,湖內里
10402(實價),透天厝,嘉義市嘉義市忠孝北街33巷8弄1~30號,2.3,5房/1廳/4衛,1 /共3層,52.7,28.74,--,--萬,1萬,55萬,600台灣嘉義市東區忠孝北街112號,23.5166068,120.4467847,荖藤里
10402(實價),透天厝,嘉義市嘉義市光彩街571~600號,0.7,10房/2廳/12衛,1 /共5層,106.76,29.58,--,--萬,27.2萬,2900萬,600台灣嘉義市西區仁愛路540號,23.477618,120.442033,書院里
10402(實價),住宅大樓,嘉義市嘉義市新民路391~420號,20.6,2房/2廳/1衛,6 /共12層,28.97,4.11,--,--萬,8.4萬,242萬,600台灣嘉義市西區新民路420號,23.4602379,120.4407319,光路里
10402(實價),住宅大樓,嘉義市嘉義市彌陀路121~150號,18.9,2房/1廳/2衛,18 /共20層,29.01,2.3,--,--萬,6.7萬,193萬,600台灣嘉義市東區彌陀路121號,23.4666592,120.4667133,芳草里
10402(實價),套房,嘉義市嘉義市友愛路481~510號,15.3,1房/1廳/1衛,9 /共12層,20.99,2.5,--,--萬,7.5萬,158萬,600台灣嘉義市西區友愛路510號,23.4886401,120.4349389,保安里
10402(實價),公寓,嘉義市嘉義市盧厝里東洋新?481~510號,31.6,3房/1廳/2衛,4 /共5層,34.17,11.46,--,--萬,6.7萬,228萬,找不到位址,無,無,無
10402(實價),住宅大樓(含車位),嘉義市嘉義市世賢路一段631~660號,20.6,3房/2廳/2衛,9 /共12層,40.27,3.89,--,--萬,7.9萬,320萬,600台灣嘉義市西區世賢路一段630號,23.4931556,120.4301178,保安里
10402(實價),華廈,嘉義市嘉義市松江三街91~120號,20.9,3房/2廳/2衛,6 /共9層,22.85,2.71,--,--萬,8.1萬,185萬,600台灣嘉義市西區松江三街120號,23.4928684,120.4415975,新厝里
10402(實價),透天厝,嘉義市嘉義市五福街82巷1~30號,28.8,3房/2廳/2衛,1 /共2層,30.68,30.25,--,--萬,18.9萬,580萬,600台灣嘉義市東區五福街165巷1號,23.4878273,120.4683435,王田里
10402(實價),透天厝,嘉義市嘉義市林森東路163巷91~120號,40.3,2房/2廳/2衛,1 /共2層,31.66,29.95,--,--萬,15.3萬,485萬,600台灣嘉義市東區林森東路163巷91號,23.4887993,120.4609102,太平里
10402(實價),透天厝(含車位),嘉義市嘉義市大雅路一段368巷56弄1~30號,0.5,4房/2廳/3衛,1 /共3層,47.36,25.26,3.78,--萬,17.9萬,850萬,600台灣嘉義市東區大雅路一段1號,23.479947,120.503839,盧厝里
10402(實價),華廈,嘉義市嘉義市中興路271巷1弄1~30號,21.6,3房/2廳/2衛,1 /共7層,40.33,7.23,--,--萬,10.9萬,440萬,600台灣嘉義市西區中興路1號,23.480175,120.4394459,後驛里
10402(實價),華廈,嘉義市嘉義市永福三街1~30號,22.4,3房/2廳/2衛,4 /共7層,45.09,7.77,--,--萬,9.5萬,430萬,600台灣嘉義市西區永福三街30號,23.4736996,120.4249398,磚磘里
10402(實價),住宅大樓,嘉義市嘉義市世賢路一段511~540號,15.6,3房/2廳/2衛,4 /共14層,32.69,3.31,--,--萬,6.2萬,203萬,600台灣嘉義市西區世賢路一段511號,23.4937076,120.4327305,保生里
10402(實價),套房,嘉義市嘉義市小雅路181~210號,21.7,1房/1廳/1衛,4 /共16層,14.01,1.66,--,--萬,8.6萬,120萬,600台灣嘉義市東區小雅路185號,23.4726044,120.4740688,蘭潭里
10402(實價),華廈,嘉義市嘉義市東洋新?301~330號,29.3,3房/2廳/2衛,1 /共5層,42.54,9.76,--,--萬,9.9萬,420萬,600台灣嘉義市東區文雅街,23.4837986,120.487306,文雅里
10402(實價),華廈(含車位),嘉義市嘉義市友愛路149巷1~30號,22,3房/2廳/2衛,5 /共7層,46.32,7.64,--,--萬,7.3萬,336萬,600台灣嘉義市西區友愛路30號,23.4921539,120.4441036,湖邊里
10402(實價),華廈,嘉義市嘉義市友愛路271~300號,22.8,0房/0廳/0衛,6 /共10層,29.87,0,--,--萬,2萬,60萬,600台灣嘉義市西區友愛路271號,23.485522,120.433194,竹圍里
10402(實價),透天厝,嘉義市嘉義市徐州六街1~30號,29.5,4房/2廳/4衛,1 /共3層,58.27,53.85,--,--萬,36.2萬,2110萬,600台灣嘉義市西區徐州六街40-42號,23.4668647,120.4380083,福民里
10402(實價),透天厝,嘉義市嘉義市仁愛路227巷1~30號,43.3,3房/1廳/2衛,1 /共2層,29.02,22.08,--,--萬,14.1萬,410萬,600台灣嘉義市西區仁愛路227巷1號,23.4710375,120.4424087,垂楊里
10402(實價),透天厝,嘉義市嘉義市彌陀路238巷1~30號,38,3房/2廳/2衛,1 /共2層,34.96,26.62,--,--萬,20.9萬,730萬,600台灣嘉義市東區彌陀路238巷4號,23.4735829,120.4634449,短竹里
10402(實價),透天厝,嘉義市嘉義市湖邊里6鄰國華新村31~60號,44.4,3房/2廳/2衛,1 /共2層,21.42,30.25,--,--萬,17.3萬,370萬,600台灣嘉義市西區國華新村37號,23.4939621,120.4432989,湖邊里
10402(實價),套房,嘉義市嘉義市忠順一街1~30號,21.9,1房/1廳/1衛,4 /共8層,9.7,1.25,--,--萬,6.2萬,60萬,600台灣嘉義市西區忠順一街30號,23.4842808,120.4345523,竹圍里
10402(實價),套房,嘉義市嘉義市忠順一街1~30號,21.9,1房/1廳/1衛,8 /共8層,9.17,1.23,--,--萬,6.5萬,60萬,600台灣嘉義市西區忠順一街30號,23.4842808,120.4345523,竹圍里
10402(實價),套房,嘉義市嘉義市蘭井街151~180號,24.1,1房/1廳/1衛,4 /共6層,10.68,1.78,--,--萬,6.6萬,70萬,600台灣嘉義市東區蘭井街155號,23.4775913,120.4516521,中央里
10402(實價),套房,嘉義市嘉義市忠順一街1~30號,21.9,1房/1廳/1衛,5 /共8層,11.22,1.57,--,--萬,6.2萬,70萬,600台灣嘉義市西區忠順一街30號,23.4842808,120.4345523,竹圍里
10402(實價),透天厝,嘉義市嘉義市保仁三街162巷1弄1~30號,41.3,3房/2廳/2衛,1 /共2層,19.24,19.36,--,--萬,12.7萬,245萬,600台灣嘉義市東區保仁三街1號,23.503521,120.4533602,後湖里
10402(實價),透天厝,嘉義市嘉義市軍輝路121~150號,21.2,9房/2廳/4衛,1 /共4層,76.33,29.65,--,--萬,15.7萬,1195萬,600台灣嘉義市東區軍輝路152-1號,23.4561599,120.4610738,興仁里
10402(實價),透天厝,嘉義市嘉義市民國路257巷1~30號,42.9,2房/1廳/1衛,1 /共2層,18.13,13.31,--,--萬,8.3萬,150萬,600台灣嘉義市東區民國路30號,23.4760933,120.4608604,朝陽里
10402(實價),透天厝,嘉義市嘉義市民國路257巷1~30號,42.9,2房/1廳/1衛,1 /共2層,17.76,11.8,--,--萬,8.4萬,150萬,600台灣嘉義市東區民國路30號,23.4760933,120.4608604,朝陽里
10402(實價),套房,嘉義市嘉義市友愛路541~570號,19.6,1房/1廳/1衛,7 /共14層,11.35,0.82,--,--萬,6.2萬,70萬,600台灣嘉義市西區友愛路570號,23.4900956,120.4362421,保生里
10402(實價),套房,嘉義市嘉義市廣州街211~240號,20.9,1房/1廳/1衛,4 /共7層,12.03,3.87,--,--萬,13.3萬,160萬,600台灣嘉義市西區廣州街211號,23.4640077,120.431415,福民里
10402(實價),套房,嘉義市嘉義市重慶路361~390號,21.3,1房/0廳/1衛,4 /共7層,11.08,1.79,--,--萬,5.4萬,60萬,600台灣嘉義市西區重慶路373號,23.4628796,120.4315962,福民里
10401(實價),透天厝,嘉義市嘉義市金龍街91~120號,0,5房/2廳/6衛,1 /共5層,104.5,61.13,--,--萬,27.8萬,2900萬,600台灣嘉義市東區金龍街91號,23.4774845,120.4660093,東川里
10401(實價),華廈,嘉義市嘉義市北榮街121~150號,24,4房/2廳/3衛,5 /共7層,85.3,12.33,--,--萬,6.2萬,525萬,600台灣嘉義市西區北榮街78-82號,23.4807719,120.4478229,國華里
10401(實價),華廈,嘉義市嘉義市北榮街121~150號,24,5房/1廳/1衛,6 /共7層,85.3,98.62,--,--萬,5.1萬,435萬,600台灣嘉義市西區北榮街78-82號,23.4807719,120.4478229,國華里
10402(實價),住宅大樓(含車位),嘉義市嘉義市博東路151~180號,16.9,3房/2廳/2衛,17 /共22層,46.96,4.62,--,--萬,6.8萬,320萬,600台灣嘉義市東區博東路80-112號,23.4908563,120.4605339,太平里
10401(實價),透天厝,嘉義市嘉義市忠孝路781~810號,20.9,4房/3廳/3衛,1 /共3層,67.04,23.9,--,--萬,7.6萬,510萬,600台灣嘉義市東區忠孝路782號,23.5097412,120.4461873,荖藤里
10402(實價),透天厝,嘉義市嘉義市自強街84巷31~60號,37,3房/2廳/2衛,1 /共2層,30.96,22.99,--,--萬,6.3萬,196萬,600台灣嘉義市西區自強街84巷42-44號,23.4657842,120.4216584,劉厝里
10402(實價),住宅大樓,嘉義市嘉義市博愛路二段151~180號,15.8,2房/1廳/1衛,10 /共14層,20.22,2.06,--,--萬,9.1萬,185萬,600台灣嘉義市西區博愛路二段133號,23.4815231,120.4398559,
10401(實價),住宅大樓,嘉義市嘉義市新生路571~600號,19.3,3房/2廳/2衛,11 /共12層,42.42,5.75,--,--萬,10.6萬,450萬,600台灣嘉義市東區新生路564-568號,23.4920074,120.4581246,太平里
10401(實價),店面(店鋪),嘉義市嘉義市文化路271~300號,0,5房/4廳/7衛,1 /共5層,107.28,30.21,--,--萬,31.4萬,3365萬,600台灣嘉義市東區文化路265-273號,23.4837062,120.4487044,北門里
10401(實價),住宅大樓,嘉義市嘉義市保建街31~60號,21.6,3房/2廳/2衛,7 /共12層,36.81,6.2,--,--萬,9.2萬,338萬,600台灣嘉義市東區保建街60號,23.5006199,120.4530035,後湖里
10401(實價),公寓,嘉義市嘉義市林森東路451~480號,25.4,3房/2廳/3衛,1 /共5層,57.46,23.99,--,--萬,9.8萬,565萬,600台灣嘉義市東區林森東路480號,23.491523,120.4698939,圳頭里
10401(實價),住宅大樓,嘉義市嘉義市八德路301~330號,20.2,3房/2廳/2衛,5 /共16層,34.21,3.63,--,--萬,8.5萬,290萬,600台灣嘉義市西區八德路330號,23.4912488,120.4302424,保安里
10401(實價),住宅大樓,嘉義市嘉義市德明路61~90號,19.4,2房/2廳/1衛,17 /共18層,25.08,1.88,--,--萬,9.8萬,245萬,600台灣嘉義市西區德明路90號,23.4814836,120.4320387,福全里
10401(實價),透天厝,嘉義市嘉義市文雅街1巷1~30號,10.7,5房/2廳/3衛,1 /共5層,75.1,36.91,--,--萬,29.3萬,2200萬,600台灣嘉義市東區文雅街140巷11號,23.4840615,120.4853228,文雅里
10401(實價),住宅大樓,嘉義市嘉義市世賢路三段211~240號,21.3,3房/1廳/2衛,6 /共12層,44.08,5.07,--,--萬,7.9萬,350萬,600台灣嘉義市西區世賢路三段205號,23.4623071,120.4320898,福民里
10401(實價),透天厝,嘉義市嘉義市德安路121~150號,9.7,5房/2廳/4衛,1 /共4層,66.5,30.55,--,--萬,19.9萬,1320萬,600台灣嘉義市西區德安路120號,23.4841663,120.4293902,保福里
10401(實價),透天厝,嘉義市嘉義市溪興街211~240號,32.1,4房/3廳/2衛,1 /共5層,58.77,20.18,--,--萬,6.1萬,360萬,600台灣嘉義市東區溪興街215號,23.4544097,120.4555303,興村里
10401(實價),華廈,嘉義市嘉義市自強街195巷1~30號,24.2,4房/2廳/2衛,3 /共8層,41.26,6.23,--,--萬,9.4萬,388萬,600台灣嘉義市西區自強街195巷32-1號,23.4643382,120.4201285,劉厝里
10401(實價),透天厝,嘉義市嘉義市西門街181~210號,0.7,5房/3廳/4衛,1 /共4層,94.01,39.33,--,--萬,18.6萬,1750萬,600台灣嘉義市西區西門街185號,23.4782208,120.4430635,書院里
10401(實價),透天厝,嘉義市嘉義市八德路271~300號,1,4房/3廳/3衛,1 /共3層,53,23.29,--,--萬,20.9萬,1108萬,600台灣嘉義市西區八德路300號,23.490958,120.430367,保安里
10401(實價),華廈,嘉義市嘉義市友愛路1~30號,21.6,2房/2廳/1衛,5 /共7層,28.04,4.73,--,--萬,7.1萬,200萬,600台灣嘉義市西區友愛路30號,23.4921539,120.4441036,湖邊里
10401(實價),透天厝,嘉義市嘉義市盧厝31~60號,14.6,4房/4廳/4衛,1 /共4層,112.66,101.08,--,--萬,15.3萬,1720萬,600台灣嘉義市東區保義路60巷17號,23.5013395,120.4532965,後湖里
10401(實價),住宅大樓,嘉義市嘉義市忠孝路781~810號,19.3,3房/2廳/2衛,3 /共11層,39.47,5.64,--,--萬,7.1萬,280萬,600台灣嘉義市東區忠孝路782號,23.5097412,120.4461873,荖藤里
10401(實價),住宅大樓(含車位),嘉義市嘉義市文雅街150巷1~30號,19.3,3房/2廳/2衛,10 /共13層,45.09,6.54,--,--萬,10.2萬,460萬,600台灣嘉義市東區文雅街140巷11號,23.4840615,120.4853228,文雅里
10401(實價),華廈(含車位),嘉義市嘉義市永康二街1~30號,22.7,2房/1廳/1衛,3 /共7層,28.72,5.59,--,--萬,12.2萬,350萬,600台灣嘉義市西區永康二街8-14號,23.4751797,120.4243676,磚磘里
10401(實價),透天厝,嘉義市嘉義市信義路83巷31~60號,27.9,3房/2廳/2衛,1 /共2層,31.12,20.87,--,--萬,12.9萬,400萬,600台灣嘉義市西區信義路47號,23.4743614,120.4344611,西平里
10401(實價),透天厝,嘉義市嘉義市芳安路17巷31~60號,19.7,7房/1廳/4衛,1 /共3層,25.55,16.03,--,--萬,16.6萬,423萬,600台灣嘉義市東區芳安路17巷31號,23.4682874,120.4649603,芳草里
10401(實價),透天厝,嘉義市嘉義市民族路511~540號,36.5,4房/2廳/2衛,1 /共4層,100.2,27.83,--,--萬,21萬,2100萬,600台灣嘉義市西區大華公路540號,23.4760064,120.4479422,文化里
10401(實價),華廈,嘉義市嘉義市自強街195巷31~60號,24.2,3房/1廳/1衛,7 /共8層,27.16,4.04,--,--萬,6.8萬,185萬,600台灣嘉義市西區自強街195巷27號,23.464458,120.4203273,劉厝里
10401(實價),透天厝,嘉義市嘉義市光彩街541~570號,0.6,13房/2廳/15衛,1 /共5層,141.43,34.79,--,--萬,24萬,3400萬,600台灣嘉義市西區光彩街541號,23.477635,120.4437435,書院里
10401(實價),透天厝,嘉義市嘉義市光彩街541~570號,0.6,10房/2廳/12衛,1 /共5層,103.23,27.77,--,--萬,28.1萬,2900萬,600台灣嘉義市西區光彩街541號,23.477635,120.4437435,書院里
10401(實價),住宅大樓,嘉義市嘉義市博愛路二段151~180號,15.8,1房/1廳/1衛,9 /共14層,11.84,1.16,--,--萬,8.9萬,105萬,600台灣嘉義市西區博愛路二段133號,23.4815231,120.4398559,
10401(實價),華廈,嘉義市嘉義市彌陀路238巷59弄1~30號,24.9,4房/2廳/2衛,2 /共7層,43.64,9.29,--,--萬,7.6萬,330萬,600台灣嘉義市東區彌陀路238巷7弄5號,23.4740199,120.4632164,短竹里
10401(實價),住宅大樓(含車位),嘉義市嘉義市忠孝路790之61~90號,19.3,3房/2廳/2衛,1 /共11層,35.11,5.08,--,--萬,10.3萬,360萬,600台灣嘉義市東區忠孝路80號,23.478665,120.4545405,民族里
10401(實價),公寓,嘉義市嘉義市中庄里臺斗街181~210號,30.6,3房/2廳/2衛,2 /共5層,33.01,9.24,--,--萬,7.6萬,250萬,600台灣嘉義市東區台斗街163號,23.494294,120.4510584,中庄里
10401(實價),華廈(含車位),嘉義市嘉義市友孝路151~180號,20.7,3房/2廳/2衛,4 /共9層,40.36,4.42,--,--萬,9.9萬,400萬,600台灣嘉義市西區友孝路180號,23.484917,120.4354928,竹圍里
10401(實價),透天厝,嘉義市嘉義市維新路31~60號,41.1,3房/1廳/2衛,1 /共2層,38.53,26.32,--,--萬,31.1萬,1200萬,600台灣嘉義市東區維新路21-39號,23.4802796,120.4589605,華南里
10401(實價),透天厝,嘉義市嘉義市自強街106巷31~60號,22.9,6房/1廳/5衛,1 /共4層,53.98,22.99,--,--萬,9.7萬,525萬,600台灣嘉義市西區自強街106巷31號,23.4657378,120.4210809,劉厝里
10401(實價),華廈,嘉義市嘉義市嘉北街12巷31~60號,24.3,3房/1廳/1衛,5 /共7層,25.78,4.5,--,--萬,7.3萬,188萬,600台灣嘉義市東區嘉北街18號,23.4938455,120.4559574,頂庄里
10401(實價),住宅大樓,嘉義市嘉義市德惠街31~60號,20.7,1房/1廳/1衛,9 /共12層,15.17,1.23,--,--萬,9.2萬,140萬,600台灣嘉義市西區德惠街32-34號,23.4837156,120.432457,竹圍里
10401(實價),華廈,嘉義市嘉義市文雅街116巷1~30號,18.6,4房/2廳/3衛,1 /共9層,57.48,9.37,--,--萬,9萬,520萬,600台灣嘉義市東區文雅街140巷11號,23.4840615,120.4853228,文雅里
10401(實價),住宅大樓(含車位),嘉義市嘉義市世賢路三段151~180號,21.3,3房/2廳/2衛,6 /共12層,74.35,1.85,--,--萬,3.7萬,275萬,600台灣嘉義市西區世賢路三段151號,23.463308,120.4308058,福民里
10401(實價),透天厝,嘉義市嘉義市保安一路413巷31~60號,0.4,4房/2廳/3衛,1 /共4層,67.68,30.86,--,--萬,13.7萬,926萬,600台灣嘉義市西區保安一路60號,23.4937234,120.4406487,新厝里
10401(實價),住宅大樓,嘉義市嘉義市玉山路240巷1~30號,20.5,3房/1廳/2衛,8 /共12層,32.35,3.03,--,--萬,6.2萬,200萬,600台灣嘉義市西區玉山路1號,23.473261,120.4319371,磚瑤里
10401(實價),透天厝,嘉義市嘉義市林森東路691巷259弄31~60號,46.8,0房/0廳/0衛,1 /共1層,19.72,32.67,--,--萬,18.2萬,359萬,600台灣嘉義市東區林森東路60號,23.4867484,120.4566382,林森里
10401(實價),透天厝,嘉義市嘉義市下埤里賢達路501巷1~30號,9.5,4房/2廳/3衛,1 /共3層,54.07,0,--,--萬,1.8萬,100萬,600台灣嘉義市西區賢達路17號,23.4955988,120.4113762,下埤里
10401(實價),住宅大樓,嘉義市嘉義市永福一街1~30號,20.1,3房/2廳/2衛,8 /共13層,44.28,5.35,--,--萬,10.1萬,449萬,600台灣嘉義市西區永福一街22號,23.4726134,120.4252421,磚磘里
10401(實價),住宅大樓,嘉義市嘉義市八德路181~210號,21.1,3房/1廳/2衛,9 /共12層,37.97,4.77,--,--萬,8.7萬,330萬,600台灣嘉義市西區八德路174號,23.4871625,120.4306552,保福里
10401(實價),透天厝,嘉義市嘉義市興中街121~150號,0.5,7房/1廳/7衛,1 /共5層,114.8,31.46,--,--萬,16.8萬,1930萬,600台灣嘉義市東區興中街150號,23.4803341,120.451168,中央里
10401(實價),透天厝,嘉義市嘉義市民樂街61~90號,40.8,2房/2廳/2衛,1 /共2層,33.63,19.36,--,--萬,18.9萬,635萬,600台灣嘉義市東區民樂街61號,23.4812002,120.4583705,東興里
10401(實價),住宅大樓,嘉義市嘉義市德明路61~90號,19.4,3房/2廳/1衛,5 /共18層,34.14,2.76,--,--萬,10.5萬,360萬,600台灣嘉義市西區德明路90號,23.4814836,120.4320387,福全里
10401(實價),住宅大樓(含車位),嘉義市嘉義市博愛路二段151~180號,15.8,2房/1廳/1衛,5 /共14層,41.39,2.8,11.95,--萬,9.5萬,393萬,600台灣嘉義市西區博愛路二段133號,23.4815231,120.4398559,
10401(實價),透天厝,嘉義市嘉義市東洋新?1~30號,7.3,5房/2廳/4衛,1 /共4層,70.3,0,--,--萬,4.7萬,330萬,600台灣嘉義市東區文雅街,23.4837986,120.487306,文雅里
10401(實價),住宅大樓(含車位),嘉義市嘉義市仁愛路240巷1~30號,10.3,0房/0廳/0衛,3 /共14層,56.14,10.33,--,--萬,9.5萬,532萬,600台灣嘉義市西區仁愛路1號,23.4666367,120.4406522,自強里
10401(實價),華廈(含車位),嘉義市長安街91~120號,21.3,3房/2廳/2衛,9 /共9層,38.83,6.51,--,--萬,7.6萬,295萬,600台灣嘉義市西區長安街91號,23.4852397,120.4443172,慶安里
10401(實價),透天厝,嘉義市嘉義市北港路256巷31~60號,36.2,3房/2廳/2衛,1 /共2層,29.33,25.41,--,--萬,6.2萬,182萬,600台灣嘉義市西區北港路256巷23號,23.4792652,120.4333007,福全里
10401(實價),透天厝,嘉義市嘉義市建成街75巷31~60號,35.8,3房/2廳/2衛,1 /共2層,23.65,17.85,--,--萬,14.8萬,350萬,600台灣嘉義市西區建成街75巷32號,23.470646,120.4405943,垂楊里
10401(實價),透天厝,嘉義市嘉義市劉厝路181~210號,5.7,4房/3廳/3衛,1 /共4層,71.11,33.22,--,--萬,18.8萬,1338萬,600台灣嘉義市西區劉厝路182號,23.4641705,120.4185639,劉厝里
10401(實價),華廈,嘉義市嘉義市南京路20巷31~60號,19.8,3房/2廳/2衛,5 /共10層,40.48,7.23,--,--萬,6.9萬,278萬,600台灣嘉義市西區南京路20巷19-57號,23.4566788,120.4425104,獅子里
10401(實價),住宅大樓,嘉義市嘉義市保建街31~60號,21.6,3房/2廳/2衛,11 /共12層,34.3,5.79,--,--萬,11.4萬,390萬,600台灣嘉義市東區保建街60號,23.5006199,120.4530035,後湖里
10401(實價),住宅大樓,嘉義市嘉義市忠孝路781~810號,19.3,3房/2廳/2衛,8 /共11層,32.37,5.08,--,--萬,7.7萬,250萬,600台灣嘉義市東區忠孝路782號,23.5097412,120.4461873,荖藤里
10401(實價),華廈,嘉義市嘉義市興村街1~30號,30.1,3房/2廳/1衛,2 /共7層,30.66,6.24,--,--萬,6萬,185萬,600台灣嘉義市西區博愛路一段482巷30號,23.4864012,120.4425852,重興里
10401(實價),透天厝,嘉義市嘉義市自治里10鄰蘭井街318巷1~30號,47,3房/1廳/1衛,1 /共2層,22.98,19.66,--,--萬,12.6萬,290萬,找不到位址,無,無,無
10401(實價),套房,嘉義市嘉義市和平路271~300號,19.7,1房/0廳/1衛,4 /共9層,8.1,0.94,--,--萬,8.4萬,68萬,600台灣嘉義市東區和平路269號,23.4800056,120.4567169,華南里
10401(實價),透天厝,嘉義市嘉義市大賢路31~60號,0.3,5房/2廳/5衛,1 /共4層,85.31,42.4,--,--萬,15.9萬,1360萬,600台灣嘉義市西區大賢路31號,23.4625512,120.4161313,劉厝里
10401(實價),透天厝,嘉義市嘉義市軍輝路162巷1~30號,38.4,4房/3廳/2衛,1 /共2層,25.63,21.78,--,--萬,11.8萬,303萬,600台灣嘉義市東區軍輝路162巷11號,23.4564755,120.4608005,興仁里
10401(實價),透天厝,嘉義市嘉義市建成街58巷1~30號,51.6,2房/1廳/1衛,1 /共1層,13.69,16.94,--,--萬,12.8萬,175萬,600台灣嘉義市西區建成街58巷72號,23.4712729,120.440449,垂楊里
10401(實價),套房,嘉義市嘉義市新榮路301~330號,21.1,1房/0廳/1衛,4 /共8層,11.9,1.19,--,--萬,8.5萬,101萬,600台灣嘉義市西區新榮路301號,23.4782794,120.4442146,西榮里
10401(實價),透天厝,嘉義市嘉義市彌陀路238巷33弄1~30號,36,4房/1廳/2衛,1 /共2層,40.05,31.46,--,--萬,14.5萬,580萬,600台灣嘉義市東區彌陀路238巷33弄35號,23.4740686,120.4640169,短竹里
10401(實價),住宅大樓,嘉義市嘉義市小雅路181~210號,21.6,3房/1廳/2衛,13 /共16層,25.03,4.25,--,--萬,9.9萬,248萬,600台灣嘉義市東區小雅路185號,23.4726044,120.4740688,蘭潭里
10401(實價),住宅大樓,嘉義市嘉義市仁愛路331~360號,19,2房/1廳/2衛,7 /共14層,28.7,2.86,--,--萬,8.8萬,252萬,600台灣嘉義市西區仁愛路398-410號,23.4736556,120.4424013,新富里
10401(實價),住宅大樓,嘉義市嘉義市蘭井街331~360號,19.2,3房/2廳/2衛,3 /共16層,40.34,4.95,--,--萬,8.4萬,340萬,600台灣嘉義市西區蘭井街260號,23.4771987,120.4459214,西榮里
10401(實價),華廈(含車位),嘉義市嘉義市南京路20巷31~60號,19.8,3房/2廳/2衛,3 /共10層,41.44,6.56,--,--萬,9.4萬,390萬,600台灣嘉義市西區南京路20巷19-57號,23.4566788,120.4425104,獅子里
10401(實價),透天厝,嘉義市嘉義市大雅路一段368巷66弄1~30號,19.1,4房/3廳/3衛,1 /共4層,94.75,39.41,--,--萬,6.7萬,635萬,600台灣嘉義市東區大雅路一段1號,23.479947,120.503839,盧厝里
10401(實價),套房,嘉義市嘉義市金龍街31~60號,21.1,1房/1廳/1衛,4 /共7層,18.56,3.76,--,--萬,8.4萬,155萬,600台灣嘉義市東區金龍街33-35號,23.4789667,120.4707766,東川里
10401(實價),華廈,嘉義市嘉義市中興路271巷1弄1~30號,21.5,3房/2廳/2衛,6 /共7層,47.58,8.53,--,--萬,8萬,380萬,600台灣嘉義市西區中興路1號,23.480175,120.4394459,後驛里
10401(實價),住宅大樓,嘉義市嘉義市福州七街61~90號,21.3,3房/2廳/2衛,5 /共12層,38.21,4.34,--,--萬,10.2萬,390萬,600台灣嘉義市西區福州七街61號,23.462024,120.432825,福民里
10401(實價),華廈,嘉義市嘉義市福州一街61~90號,22.1,1房/1廳/1衛,5 /共6層,15.71,3.29,--,--萬,8.5萬,133萬,600台灣嘉義市西區福州一街48號,23.463242,120.434575,福民里
10401(實價),透天厝,嘉義市嘉義市大業街40巷1~30號,41.2,3房/2廳/2衛,1 /共2層,22.32,23.6,--,--萬,10.7萬,238萬,600台灣嘉義市東區大業街127巷30號,23.4608867,120.4527363,安業里
10401(實價),套房,嘉義市嘉義市彌陀路121~150號,18.8,1房/0廳/1衛,4 /共20層,15.17,0.99,--,--萬,3.3萬,50萬,600台灣嘉義市東區彌陀路121號,23.4666592,120.4667133,芳草里
10401(實價),華廈,嘉義市嘉義市北榮街151~180號,19.6,5房/1廳/2衛,2 /共6層,32.54,6.3,--,--萬,10.4萬,340萬,600台灣嘉義市西區北榮街180號,23.4805071,120.4442918,番社里
10401(實價),透天厝,嘉義市嘉義市文化路694巷1~30號,33.4,5房/1廳/2衛,1 /共2層,28.36,26.92,--,--萬,7.9萬,224萬,600台灣嘉義市西區垂楊路402號,23.4741274,120.4497741,文化里
10401(實價),華廈,嘉義市嘉義市建成街181~210號,23.5,1房/1廳/1衛,5 /共6層,12.86,2.6,--,--萬,7.9萬,102萬,600台灣嘉義市西區建成街195號,23.4687551,120.4375142,車店里
10401(實價),透天厝,嘉義市嘉義市吳鳳南路37巷1~30號,41.3,4房/2廳/3衛,1 /共2層,36.83,66.25,--,--萬,32.6萬,1200萬,600台灣嘉義市東區吳鳳南路30號,23.4712666,120.4539625,豐年里
10401(實價),透天厝,嘉義市嘉義市林森東路163巷91~120號,9.5,3房/2廳/4衛,1 /共4層,73.19,27.23,--,--萬,12.4萬,910萬,600台灣嘉義市東區林森東路163巷91號,23.4887993,120.4609102,太平里
10401(實價),住宅大樓(含車位),嘉義市嘉義市泰山一街31~60號,20.1,3房/2廳/3衛,4 /共14層,57.92,6.91,--,--萬,7.7萬,446萬,600台灣嘉義市西區泰山一街60號,23.4852749,120.425294,福安里
10401(實價),住宅大樓,嘉義市嘉義市興雅路61~90號,20.2,14房/2廳/14衛,11 /共12層,153.39,13.12,--,--萬,9.8萬,1500萬,600台灣嘉義市西區興雅路90號,23.4830055,120.4327422,竹圍里
10401(實價),透天厝,嘉義市嘉義市忠孝路798巷15弄1~30號,7,4房/2廳/3衛,1 /共3層,54.6,30.24,--,--萬,12.6萬,688萬,600台灣嘉義市東區忠孝路522-1號,23.4939767,120.452811,仁義里
10401(實價),透天厝,嘉義市嘉義市大雅路二段578巷1~30號,36.3,6房/2廳/3衛,1 /共2層,45.67,37.21,--,--萬,23.8萬,1089萬,600台灣嘉義市東區大雅路二段386巷1號,23.47769,120.473753,長竹里
10401(實價),透天厝,嘉義市嘉義市東義路109巷16弄1~30號,20.6,4房/2廳/2衛,1 /共4層,61.11,28.38,--,--萬,5.7萬,350萬,600台灣嘉義市東區東義路109巷1號,23.4950314,120.4688871,後庄里
10401(實價),透天厝,嘉義市嘉義市東義路109巷1~30號,0.4,4房/3廳/5衛,1 /共3層,64.47,42.6,--,--萬,16.4萬,1059萬,600台灣嘉義市東區東義路109巷1號,23.4950314,120.4688871,後庄里
10401(實價),住宅大樓,嘉義市嘉義市志昇街1~30號,10.2,3房/2廳/2衛,7 /共14層,55.55,11.43,--,--萬,9.5萬,530萬,600台灣嘉義市西區仁愛路159巷22號,23.4689729,120.4422175,自強里
10401(實價),住宅大樓,嘉義市嘉義市德明路61~90號,19.4,2房/1廳/1衛,11 /共18層,25.08,1.88,--,--萬,10.8萬,270萬,600台灣嘉義市西區德明路90號,23.4814836,120.4320387,福全里
10401(實價),透天厝,嘉義市嘉義市福州一街1~30號,26.1,4房/3廳/4衛,1 /共4層,57.6,25.41,--,--萬,12.9萬,745萬,600台灣嘉義市西區福州一街30號,23.4632758,120.434927,福民里
10401(實價),透天厝,嘉義市嘉義市友愛路181~210號,34.1,3房/2廳/2衛,1 /共3層,78.91,31.16,--,--萬,35.5萬,2800萬,600台灣嘉義市西區友愛路210號,23.4812677,120.4341069,竹圍里
10401(實價),公寓,嘉義市嘉義市忠孝路301~330號,26.2,4房/2廳/2衛,3 /共5層,45.73,13.18,--,--萬,8萬,368萬,600台灣嘉義市東區忠孝路106號,23.4913384,120.4531722,
10401(實價),透天厝,嘉義市嘉義市文心街178巷1~30號,8.1,5房/2廳/4衛,1 /共4層,85.76,53.08,--,--萬,16萬,1370萬,600台灣嘉義市東區大雅路一段858巷33號,23.4819607,120.4847961,文雅里
10401(實價),透天厝,嘉義市嘉義市永樂五街1~30號,1.1,5房/2廳/5衛,1 /共4層,82.55,32.97,--,--萬,21.8萬,1800萬,600台灣嘉義市西區永樂五街38號,23.475569,120.4223884,港坪里
10401(實價),透天厝,嘉義市嘉義市興業西路1~30號,39.2,4房/1廳/1衛,1 /共3層,50.33,13.92,--,--萬,17.5萬,880萬,600台灣嘉義市西區興業西路30號,23.4686948,120.445471,致遠里
10401(實價),住宅大樓,嘉義市嘉義市德明路61~90號,19.4,3房/2廳/2衛,9 /共19層,36.5,2.89,--,--萬,6.8萬,250萬,600台灣嘉義市西區德明路90號,23.4814836,120.4320387,福全里
10401(實價),住宅大樓,嘉義市嘉義市博東路151~180號,16.8,3房/1廳/2衛,8 /共22層,36.18,4.38,--,--萬,8.5萬,306萬,600台灣嘉義市東區博東路80-112號,23.4908563,120.4605339,太平里
10401(實價),套房,嘉義市嘉義市小雅路181~210號,21.6,1房/1廳/1衛,10 /共16層,14.01,1.66,--,--萬,6.3萬,88萬,600台灣嘉義市東區小雅路185號,23.4726044,120.4740688,蘭潭里
10401(實價),華廈,嘉義市嘉義市嘉北街12巷31~60號,24.3,2房/1廳/1衛,7 /共7層,25.78,2.77,--,--萬,7.7萬,199萬,600台灣嘉義市東區嘉北街18號,23.4938455,120.4559574,頂庄里
10401(實價),透天厝,嘉義市嘉義市吳鳳南路621巷1~30號,37.8,3房/2廳/2衛,1 /共2層,31.13,25.71,--,--萬,13.8萬,430萬,600台灣嘉義市東區吳鳳南路30號,23.4712666,120.4539625,豐年里
10401(實價),華廈(含車位),嘉義市嘉義市大同路481~510號,20.4,3房/2廳/3衛,2 /共8層,66.16,9.77,--,--萬,9.1萬,600萬,600台灣嘉義市西區大同路481號,23.4759013,120.4225765,港坪里
10401(實價),透天厝,嘉義市嘉義市荖藤里3鄰荖藤宅31~60號,32.7,3房/2廳/2衛,1 /共2層,32.29,29.95,--,--萬,13.9萬,450萬,600台灣嘉義市東區20,23.5088651,120.4446987,荖藤里
10401(實價),華廈(含車位),嘉義市嘉義市大同路481~510號,20.4,4房/2廳/3衛,3 /共8層,66.16,9.77,--,--萬,9.1萬,600萬,600台灣嘉義市西區大同路481號,23.4759013,120.4225765,港坪里
10401(實價),透天厝(含車位),嘉義市嘉義市日新街55巷1~30號,26,4房/2廳/3衛,1 /共2層,35.3,36.6,--,--萬,22.7萬,800萬,600台灣嘉義市東區日新街1號,23.466713,120.4684457,短竹里
10401(實價),公寓,嘉義市嘉義市上海路91~120號,30.9,3房/2廳/2衛,3 /共5層,26.94,10.22,--,--萬,7萬,188萬,600台灣嘉義市西區上海路120號,23.4655479,120.432025,車店里
10401(實價),住宅大樓,嘉義市嘉義市林森東路721~750號,11.8,3房/2廳/2衛,5 /共13層,52.97,13.11,--,--萬,7.9萬,420萬,600台灣嘉義市東區林森東路750號,23.4923366,120.4778693,圳頭里
10401(實價),透天厝,嘉義市嘉義市忠孝北街141巷6弄1~30號,6.8,3房/2廳/2衛,1 /共3層,24,20.61,--,--萬,9.8萬,235萬,600台灣嘉義市東區忠孝北街112號,23.5166068,120.4467847,荖藤里
10401(實價),透天厝,嘉義市嘉義市林森東路321巷11弄1~30號,31.9,4房/1廳/3衛,1 /共2層,35.47,28.44,--,--萬,15.5萬,550萬,600台灣嘉義市東區林森東路269巷1弄30號,23.4901012,120.4654374,新店里
10401(實價),店面(店鋪),嘉義市嘉義市文化路91~120號,58.8,0房/0廳/0衛,1 /共2層,32.07,20.87,--,--萬,103.8萬,3328萬,600台灣嘉義市西區文化路91號,23.4781381,120.4497459,文化里
10401(實價),透天厝,嘉義市嘉義市撫順一街31~60號,40.3,3房/1廳/1衛,1 /共2層,9.18,10.99,--,--萬,10.9萬,100萬,600台灣嘉義市西區撫順一街31號,23.4905272,120.4399009,新厝里
10401(實價),公寓(含車位),嘉義市嘉義市南興路199巷31~60號,19.4,3房/1廳/2衛,5 /共5層,46.37,11.23,--,--萬,9.5萬,439萬,600台灣嘉義市東區南興路63號,23.4665902,120.460881,芳安里
10401(實價),套房,嘉義市嘉義市建成街151~180號,23.5,1房/0廳/1衛,2 /共6層,16.53,3.39,--,--萬,6萬,100萬,600台灣嘉義市西區建成街151號,23.4698551,120.4385426,垂楊里
10401(實價),透天厝,嘉義市嘉義市忠孝路541~570號,10,2房/2廳/4衛,1 /共4層,60.89,21.18,--,--萬,22萬,1338萬,600台灣嘉義市東區忠孝路552-4號,23.4943916,120.4526888,仁義里
10401(實價),透天厝,嘉義市嘉義市世賢路二段151~180號,4,5房/2廳/4衛,1 /共4層,72.48,28.13,--,--萬,19.3萬,1398萬,600台灣嘉義市西區世賢路二段151號,23.4751895,120.4212714,港坪里
10401(實價),透天厝,嘉義市嘉義市培元里新榮路83巷1~30號,50.2,3房/2廳/2衛,1 /共2層,20.23,15.13,--,--萬,6.7萬,135萬,600台灣嘉義市西區新榮路49巷2號,23.470887,120.444873,培元里
10401(實價),華廈,嘉義市嘉義市忠孝路781~810號,19.3,2房/2廳/1衛,5 /共11層,28.29,4.52,--,--萬,4.8萬,135萬,600台灣嘉義市東區忠孝路782號,23.5097412,120.4461873,荖藤里
10401(實價),華廈,嘉義市嘉義市泰瑞四街61~90號,16.6,3房/2廳/2衛,4 /共6層,41.79,9.27,--,--萬,7.2萬,300萬,600台灣嘉義市西區泰瑞四街78號,23.4854296,120.4269669,福安里
10401(實價),華廈,嘉義市嘉義市新建街31~60號,20.7,1房/1廳/1衛,6 /共7層,13.91,2.54,--,--萬,7.5萬,105萬,600台灣嘉義市西區新建街16號,23.468731,120.4387561,垂楊里
10401(實價),住宅大樓(含車位),嘉義市嘉義市志昇街31~60號,10.2,3房/2廳/2衛,8 /共14層,55.55,11.43,--,--萬,9.5萬,530萬,600台灣嘉義市西區仁愛路159巷22號,23.4689729,120.4422175,自強里
10401(實價),透天厝,嘉義市嘉義市博東路43巷31~60號,11.3,5房/3廳/4衛,1 /共4層,58.86,28.19,--,--萬,17.8萬,1050萬,600台灣嘉義市東區博東路31號,23.4902813,120.4623139,新店里
10401(實價),透天厝,嘉義市嘉義市友忠路827巷61~90號,25.8,7房/2廳/2衛,1 /共2層,80.84,43.96,--,--萬,4萬,326萬,600台灣嘉義市西區友忠路827巷61號,23.4879842,120.4410281,重興里
10401(實價),透天厝,嘉義市嘉義市信興街76巷11弄1~30號,23.6,4房/2廳/3衛,1 /共4層,51.55,22.08,--,--萬,10.3萬,530萬,600台灣嘉義市東區信興街73巷3弄30號,23.4653627,120.4583439,頂寮里
10401(實價),店面(店鋪),嘉義市嘉義市文化路151~180號,59,1房/1廳/1衛,1 /共2層,33.14,17.24,--,--萬,105.6萬,3500萬,600台灣嘉義市西區文化路151號,23.4803561,120.4492909,國華里
10401(實價),透天厝,嘉義市嘉義市成仁街28巷1~30號,44.8,3房/2廳/2衛,1 /共2層,33.91,34.97,--,--萬,8.3萬,280萬,600台灣嘉義市東區成仁街30號,23.4760095,120.4526478,過溝里
10401(實價),透天厝,嘉義市嘉義市遼寧二街61~90號,37.9,3房/2廳/2衛,1 /共2層,18,20.27,--,--萬,28.8萬,518萬,600台灣嘉義市西區遼寧二街61號,23.4931406,120.4397326,新厝里