年月,房屋類型,地址,屋齡,格局,出售樓層_總樓層,建物坪數,土地坪數,車位坪數,車位總價,每坪單價,成交總價,googleAPI_return_Address,lat,lng,street
10408(實價),華廈(含車位),嘉義市嘉義市忠義街61~90號,22.5,3房/1廳/1衛,6 /共6層,43.53,6.64,--,--萬,6.9萬,300萬,600台灣嘉義市西區忠義街50號,23.4769498,120.4476631,文化里
10408(實價),透天厝,嘉義市嘉義市世賢路四段350巷21弄1~30號,34.3,3房/2廳/2衛,1 /共2層,37.86,33.28,--,--萬,10.3萬,390萬,600台灣嘉義市西區世賢路四段350巷27弄1號,23.462494,120.4502358,美源里
10408(實價),華廈,嘉義市嘉義市自強街195巷31~60號,24.2,3房/2廳/2衛,4 /共7層,29.35,5.61,--,--萬,10.2萬,300萬,600台灣嘉義市西區自強街195巷27號,23.464458,120.4203273,劉厝里
10408(實價),住宅大樓(含車位),嘉義市嘉義市博東路151~180號,17.4,3房/2廳/2衛,17 /共22層,61.82,6.81,--,--萬,8.7萬,540萬,600台灣嘉義市東區博東路80-112號,23.4908563,120.4605339,太平里
10408(實價),華廈,嘉義市嘉義市文雅街121~150號,19.2,1房/0廳/1衛,5 /共9層,12.69,1.97,--,--萬,8.9萬,113萬,600台灣嘉義市東區文雅街168號,23.4833501,120.4847978,文雅里
10408(實價),透天厝,嘉義市嘉義市友竹街1~30號,9.8,5房/3廳/4衛,1 /共4層,53.17,28.44,--,--萬,14.7萬,780萬,600台灣嘉義市西區友竹街12號,23.4830526,120.4383302,竹圍里
10408(實價),華廈,嘉義市嘉義市東區嘉北街66巷1~30號,24.8,4房/2廳/2衛,4 /共7層,42.14,8.47,--,--萬,3.6萬,150萬,600台灣嘉義市東區嘉北街66巷5號,23.493988,120.454477,頂庄里
10408(實價),店面(店鋪),嘉義市嘉義市林森東路421~450號,31,4房/3廳/3衛,1 /共3層,52.18,35.7,--,--萬,28.7萬,1500萬,600台灣嘉義市東區林森東路418號,23.490773,120.4685817,後庄里
10408(實價),店面(店鋪),嘉義市嘉義市林森東路571~600號,8,4房/2廳/3衛,1 /共2層,67.69,69.58,--,--萬,26.6萬,1800萬,600台灣嘉義市東區林森東路571號,23.492444,120.476192,後庄里
10408(實價),公寓,嘉義市嘉義市福州六街1~30號,21.8,3房/1廳/3衛,1 /共7層,51.84,9.81,--,--萬,8.1萬,420萬,600台灣嘉義市西區福州六街1號,23.4633687,120.4312435,福民里
10408(實價),住宅大樓,嘉義市嘉義市南京路1~30號,22.1,2房/2廳/1衛,5 /共12層,30.68,4.48,--,--萬,8萬,246萬,600台灣嘉義市西區南京路30號,23.4562023,120.4426332,獅子里
10408(實價),華廈(含車位),嘉義市嘉義市嘉北街12巷1~30號,24.4,1房/1廳/1衛,1 /共7層,16.97,0.44,--,--萬,1.5萬,25萬,600台灣嘉義市東區嘉北街30號,23.4938508,120.4556015,仁義里
10408(實價),華廈,嘉義市嘉義市嘉北街12巷1~30號,24.4,3房/2廳/2衛,2 /共7層,42.63,7.08,--,--萬,11萬,470萬,600台灣嘉義市東區嘉北街30號,23.4938508,120.4556015,仁義里
10408(實價),透天厝,嘉義市嘉義市大雅路一段368巷61~90號,0.2,5房/2廳/4衛,1 /共4層,79.95,58.22,--,--萬,15.6萬,1250萬,600台灣嘉義市東區大雅路一段32號,23.4802408,120.5032865,盧厝里
10408(實價),華廈,嘉義市嘉義市芳安路375巷1~30號,18.8,2房/1廳/1衛,6 /共6層,26.41,6.49,--,--萬,11萬,290萬,600台灣嘉義市東區芳安路1號,23.4688333,120.4654,芳草里
10408(實價),華廈(含車位),嘉義市嘉義市福全街107巷1~30號,20.6,3房/2廳/2衛,4 /共8層,36.43,7.17,--,--萬,6.3萬,230萬,600台灣嘉義市西區民生南路850巷1弄30號,23.4545835,120.4393273,湖內里
10408(實價),住宅大樓(含車位),嘉義市嘉義市興達路592巷1~30號,22.2,3房/2廳/2衛,7 /共12層,33.57,4.15,--,--萬,8.6萬,290萬,600台灣嘉義市西區興達路1號,23.4891942,120.4455982,湖邊里
10408(實價),透天厝,嘉義市嘉義市大雅路一段368巷61~90號,0.2,5房/2廳/4衛,1 /共4層,75.31,57.22,--,--萬,17.3萬,1300萬,600台灣嘉義市東區大雅路一段32號,23.4802408,120.5032865,盧厝里
10408(實價),透天厝,嘉義市嘉義市大雅路一段368巷61~90號,0.2,5房/2廳/4衛,1 /共4層,66.8,53.34,--,--萬,18萬,1200萬,600台灣嘉義市東區大雅路一段32號,23.4802408,120.5032865,盧厝里
10408(實價),住宅大樓,嘉義市嘉義市友愛路721~750號,24.2,4房/2廳/2衛,11 /共12層,52.59,7.26,--,--萬,9.5萬,500萬,600台灣嘉義市西區友愛路725號,23.4917426,120.4391887,新厝里
10408(實價),透天厝,嘉義市嘉義市大雅路一段368巷61~90號,0.2,5房/2廳/4衛,1 /共4層,72.2,53.16,--,--萬,16.2萬,1170萬,600台灣嘉義市東區大雅路一段32號,23.4802408,120.5032865,盧厝里
10408(實價),透天厝,嘉義市嘉義市大雅路一段368巷61~90號,0.2,4房/2廳/4衛,1 /共4層,68.29,41.57,--,--萬,13.2萬,898萬,600台灣嘉義市東區大雅路一段32號,23.4802408,120.5032865,盧厝里
10408(實價),透天厝,嘉義市嘉義市大雅路一段368巷61~90號,0.2,5房/2廳/4衛,1 /共4層,104.37,259.34,--,--萬,21.1萬,2200萬,600台灣嘉義市東區大雅路一段32號,23.4802408,120.5032865,盧厝里
10408(實價),透天厝,嘉義市嘉義市大雅路一段368巷61~90號,0.2,4房/2廳/4衛,1 /共3層,68.82,50.99,--,--萬,14.2萬,980萬,600台灣嘉義市東區大雅路一段32號,23.4802408,120.5032865,盧厝里
10408(實價),透天厝,嘉義市嘉義市大雅路一段368巷61~90號,0.2,5房/2廳/4衛,1 /共4層,78.81,54.47,--,--萬,15.9萬,1250萬,600台灣嘉義市東區大雅路一段32號,23.4802408,120.5032865,盧厝里
10408(實價),透天厝,嘉義市嘉義市大雅路一段368巷31~60號,0.2,5房/2廳/4衛,1 /共4層,83.17,65.2,--,--萬,16.8萬,1400萬,600台灣嘉義市東區大雅路一段32號,23.4802408,120.5032865,盧厝里
10408(實價),華廈,嘉義市嘉義市民生南路510巷1~30號,24.3,3房/2廳/2衛,5 /共9層,44.12,8.79,--,--萬,8.1萬,358萬,600台灣嘉義市西區民生南路850巷1弄30號,23.4545835,120.4393273,湖內里
10408(實價),透天厝,嘉義市嘉義市南京路481~510號,7.3,6房/3廳/3衛,1 /共5層,91.65,39.73,--,--萬,23.5萬,2150萬,600台灣嘉義市西區南京路514-516號,23.4668902,120.4359427,福民里
10408(實價),店面(店鋪),嘉義市嘉義市中興路211~240號,27.1,5房/2廳/5衛,1 /共1層,110.72,318.84,--,--萬,100.8萬,11158萬,600台灣嘉義市西區中興路211號,23.4823206,120.4351487,竹圍里
10408(實價),華廈,嘉義市嘉義市忠孝路571~600號,24.3,3房/2廳/2衛,8 /共10層,42.87,8.65,--,--萬,8.9萬,380萬,600台灣嘉義市東區忠孝路583號,23.5020163,120.4485322,後湖里
10408(實價),透天厝,嘉義市嘉義市大雅路一段368巷61~90號,0.2,4房/2廳/4衛,1 /共3層,64.82,45.44,--,--萬,14萬,905萬,600台灣嘉義市東區大雅路一段32號,23.4802408,120.5032865,盧厝里
10408(實價),套房,嘉義市嘉義市小雅路181~210號,22.2,1房/1廳/1衛,11 /共16層,14.56,1.73,--,--萬,4.9萬,72萬,600台灣嘉義市東區小雅路185號,23.4726044,120.4740688,蘭潭里
10408(實價),華廈,嘉義市嘉義市東洋新?601~630號,30.8,3房/2廳/2衛,4 /共6層,24.76,5.98,--,--萬,10萬,248萬,600台灣嘉義市東區文雅街,23.4837986,120.487306,文雅里
10408(實價),華廈,嘉義市嘉義市泰瑞二街61~90號,23,3房/2廳/2衛,3 /共7層,35.24,6.32,--,--萬,8.2萬,290萬,600台灣嘉義市西區泰山三街70號,23.4857978,120.4256421,福安里
10408(實價),華廈,嘉義市嘉義市興村街1~30號,30.7,3房/2廳/1衛,3 /共7層,30.66,6.05,--,--萬,10萬,308萬,600台灣嘉義市西區博愛路一段482巷30號,23.4864012,120.4425852,重興里
10408(實價),透天厝,嘉義市嘉義市北?街148巷1~30號,43.7,2房/2廳/1衛,1 /共1層,15.6,16.64,--,--萬,11.2萬,175萬,600台灣嘉義市西區民生南路850巷1弄30號,23.4545835,120.4393273,湖內里
10408(實價),透天厝,嘉義市嘉義市日新街119巷1~30號,14.9,4房/3廳/3衛,1 /共4層,63.26,24.96,--,--萬,13萬,820萬,600台灣嘉義市東區日新街1號,23.466713,120.4684457,短竹里
10408(實價),店面(店鋪),嘉義市嘉義市仁愛路241~270號,49.9,2房/2廳/1衛,1 /共2層,15.57,11.65,--,--萬,38.5萬,600萬,600台灣嘉義市西區仁愛路241號,23.4714735,120.4425284,垂楊里
10408(實價),華廈,嘉義市嘉義市忠孝北街211~240號,21.6,1房/1廳/1衛,5 /共7層,10.14,1.79,--,--萬,7.9萬,80萬,600台灣嘉義市東區忠孝北街211號,23.5161577,120.4431115,荖藤里
10408(實價),透天厝,嘉義市嘉義市北港路268巷31~60號,45.2,3房/2廳/1衛,1 /共2層,21.06,13.92,--,--萬,9萬,190萬,600台灣嘉義市西區北港路196-198號,23.4770479,120.4353905,福全里
10408(實價),住宅大樓,嘉義市嘉義市忠孝路781~810號,19.8,3房/2廳/2衛,5 /共11層,28.29,4.52,--,--萬,9.9萬,280萬,600台灣嘉義市東區忠孝路782號,23.5097412,120.4461873,荖藤里
10408(實價),華廈,嘉義市嘉義市自強街195巷31~60號,24.8,4房/2廳/2衛,7 /共8層,44.27,5.19,--,--萬,8.5萬,375萬,600台灣嘉義市西區自強街195巷27號,23.464458,120.4203273,劉厝里
10408(實價),住宅大樓,嘉義市嘉義市興達路481~510號,20.8,3房/2廳/2衛,11 /共16層,38.29,3.78,--,--萬,9.5萬,365萬,600台灣嘉義市西區興達路480號,23.484986,120.431949,竹圍里
10408(實價),住宅大樓,嘉義市嘉義市西區德明路61~90號,20,2房/1廳/1衛,16 /共18層,25.08,1.88,--,--萬,10萬,250萬,600台灣嘉義市西區德明路90號,23.4814836,120.4320387,福全里
10408(實價),透天厝,嘉義市嘉義市興南里4鄰吳鳳南路83巷31~60號,37.7,3房/1廳/2衛,1 /共2層,19.66,0,--,--萬,2.3萬,45萬,600台灣嘉義市西區嘉義,23.4800663,120.4491054,
10408(實價),華廈,嘉義市嘉義市永福一街31~60號,24.3,3房/1廳/2衛,7 /共8層,26.82,3.54,--,--萬,9.7萬,260萬,600台灣嘉義市西區永福一街22號,23.4726134,120.4252421,磚磘里
10408(實價),透天厝,嘉義市嘉義市忠孝路211~240號,73.8,3房/2廳/2衛,1 /共1層,27.27,39.33,--,--萬,52.1萬,1420萬,600台灣嘉義市東區忠孝路106號,23.4913384,120.4531722,
10408(實價),透天厝,嘉義市嘉義市國華街16巷1~30號,14.5,11房/1廳/4衛,1 /共4層,20.91,0,--,--萬,1.4萬,30萬,600台灣嘉義市西區國華街16巷3號,23.470445,120.44981,育英里
10408(實價),華廈,嘉義市嘉義市軍輝路61~90號,20.3,3房/2廳/2衛,4 /共7層,55,10.55,--,--萬,7.3萬,400萬,600台灣嘉義市東區軍輝路90號,23.4561836,120.4626483,興仁里
10408(實價),透天厝,嘉義市嘉義市西區西平里大統路110巷1~30號,0.9,5房/2廳/5衛,1 /共4層,90.89,53.35,--,--萬,19.6萬,1780萬,600台灣嘉義市西區大統路30號,23.4696881,120.4277597,磚磘里
10408(實價),住宅大樓(含車位),嘉義市嘉義市忠孝路781~810號,19.8,2房/1廳/2衛,5 /共11層,31.51,4.24,--,--萬,6.1萬,192萬,600台灣嘉義市東區忠孝路782號,23.5097412,120.4461873,荖藤里
10408(實價),華廈,嘉義市嘉義市興村街31~60號,31.8,2房/1廳/1衛,6 /共8層,21.19,2.58,--,--萬,7.3萬,155萬,600台灣嘉義市東區興村街60號,23.4549917,120.4570036,興村里
10408(實價),住宅大樓,嘉義市嘉義市彌陀路121~150號,19.4,3房/2廳/2衛,4 /共20層,43.05,2.96,--,--萬,8.8萬,380萬,600台灣嘉義市東區彌陀路121號,23.4666592,120.4667133,芳草里
10408(實價),透天厝,嘉義市嘉義市日新街218巷31~60號,1.8,5房/2廳/4衛,1 /共4層,74.73,52.41,--,--萬,21.4萬,1600萬,600台灣嘉義市東區日新街31號,23.4674925,120.4687269,短竹里
10408(實價),透天厝,嘉義市嘉義市文化路193巷1~30號,42.5,3房/2廳/2衛,1 /共2層,27.6,17.55,--,--萬,10.4萬,288萬,600台灣嘉義市西區垂楊路402號,23.4741274,120.4497741,文化里
10408(實價),華廈,嘉義市嘉義市八德路361~390號,21.8,4房/2廳/2衛,3 /共8層,40.5,7.45,--,--萬,8.9萬,360萬,600台灣嘉義市西區八德路360-366號,23.491668,120.4300767,保安里
10408(實價),透天厝,嘉義市嘉義市五顯街148巷1~30號,20.3,6房/2廳/3衛,1 /共4層,38.3,13.31,--,--萬,7.8萬,300萬,600台灣嘉義市西區五顯街148巷21號,23.4864588,120.4455162,北榮里
10408(實價),透天厝,嘉義市嘉義市忠義街197巷1~30號,42.9,3房/2廳/2衛,1 /共2層,29.56,20.27,--,--萬,6.8萬,200萬,600台灣嘉義市西區忠義街1號,23.4740467,120.4477428,新富里
10408(實價),透天厝,嘉義市嘉義市西區新民路481~510號,8.3,5房/2廳/3衛,1 /共4層,79.21,30.86,--,--萬,15.2萬,1200萬,600台灣嘉義市西區新民路481號,23.458158,120.438172,光路里
10408(實價),透天厝,嘉義市嘉義市安寮里15鄰吳鳳南路521巷8弄1~30號,34.4,4房/2廳/2衛,1 /共2層,14.24,11.13,--,--萬,5.3萬,75萬,600台灣嘉義市東區吳鳳南路521巷8弄9號,23.4611868,120.4579828,安寮里
10408(實價),住宅大樓,嘉義市嘉義市義教街601~630號,21.1,3房/2廳/2衛,10 /共11層,32.77,5.01,--,--萬,11萬,360萬,600台灣嘉義市東區義教街601號,23.4983986,120.4573523,頂庄里
10408(實價),套房,嘉義市嘉義市彌陀路241~270號,23.3,1房/1廳/1衛,9 /共12層,9.93,1.52,--,--萬,8.9萬,88萬,600台灣嘉義市東區彌陀路237號,23.4684617,120.4657539,芳草里
10408(實價),住宅大樓,嘉義市嘉義市忠孝路781~810號,19.8,3房/2廳/2衛,4 /共11層,27.7,3.95,--,--萬,11.2萬,310萬,600台灣嘉義市東區忠孝路782號,23.5097412,120.4461873,荖藤里
10408(實價),住宅大樓,嘉義市嘉義市保建街31~60號,22.2,3房/2廳/2衛,8 /共13層,35.41,6.2,--,--萬,9萬,320萬,600台灣嘉義市東區保建街60號,23.5006199,120.4530035,後湖里
10408(實價),華廈,嘉義市嘉義市嘉義市東洋新301~330號,29.8,2房/1廳/1衛,1 /共5層,39.68,8.79,--,--萬,7.5萬,298萬,找不到位址,無,無,無
10408(實價),住宅大樓,嘉義市嘉義市蘭井街331~360號,19.8,0房/0廳/0衛,-1 /共16層,249.55,14.49,--,--萬,0.8萬,200萬,600台灣嘉義市西區蘭井街260號,23.4771987,120.4459214,西榮里
10408(實價),透天厝,嘉義市嘉義市中正路254巷1~30號,33.5,6房/2廳/5衛,1 /共3層,92,32.37,--,--萬,6.5萬,600萬,600台灣嘉義市西區中正路732-1號,23.4785841,120.4419921,書院里
10408(實價),透天厝,嘉義市嘉義市北港路721~750號,49.3,4房/4廳/2衛,1 /共2層,38.93,55.32,--,--萬,28.3萬,1100萬,600台灣嘉義市西區北港路717號,23.485987,120.416824,大溪里
10408(實價),透天厝,嘉義市嘉義市大聖路181~210號,1.3,4房/2廳/3衛,1 /共4層,63.88,40.99,--,--萬,13.3萬,850萬,600台灣嘉義市西區大聖路156號,23.4617412,120.4184082,劉厝里
10408(實價),透天厝,嘉義市嘉義市西區西平里大統路91~120號,0.9,5房/2廳/6衛,1 /共4層,65.87,36.41,--,--萬,22.8萬,1500萬,600台灣嘉義市西區大統路90號,23.4707458,120.4262717,磚磘里
10408(實價),住宅大樓(含車位),嘉義市嘉義市博東路151~180號,17.4,4房/2廳/2衛,16 /共22層,54.92,5.6,--,--萬,8.4萬,460萬,600台灣嘉義市東區博東路80-112號,23.4908563,120.4605339,太平里
10408(實價),住宅大樓,嘉義市嘉義市蘭井街451~480號,22.6,0房/0廳/0衛,8 /共15層,9.24,0.7,--,--萬,16.2萬,150萬,600台灣嘉義市西區蘭井街449號,23.4767978,120.4426592,書院里
10408(實價),透天厝,嘉義市嘉義市立仁路312巷1~30號,2.4,0房/0廳/0衛,1 /共3層,72.58,37.35,--,--萬,18.6萬,1350萬,600台灣嘉義市東區立仁路141-1號,23.4641073,120.4622139,芳安里
10408(實價),透天厝,嘉義市嘉義市頂福街42巷1~30號,46.1,4房/2廳/1衛,1 /共2層,12.57,14.52,--,--萬,4.8萬,60萬,找不到位址,無,無,無
10408(實價),住宅大樓,嘉義市嘉義市蘭井街451~480號,22.6,0房/0廳/0衛,8 /共15層,11.42,0.86,--,--萬,15.8萬,180萬,600台灣嘉義市西區蘭井街449號,23.4767978,120.4426592,書院里
10408(實價),透天厝,嘉義市嘉義市東區彌陀路241巷1~30號,41.9,3房/1廳/1衛,1 /共2層,19.22,18.76,--,--萬,7.2萬,138萬,600台灣嘉義市東區彌陀路241巷1號,23.4682177,120.4657,芳草里
10408(實價),華廈,嘉義市嘉義市新榮路301~330號,21.7,0房/0廳/0衛,4 /共8層,17.99,2.15,--,--萬,8.9萬,160萬,600台灣嘉義市西區新榮路301號,23.4782794,120.4442146,西榮里
10408(實價),透天厝,嘉義市嘉義市西區福安里四維路121~150號,33.7,5房/2廳/4衛,1 /共3層,51,25.41,--,--萬,15.7萬,800萬,600台灣嘉義市西區四維路122號,23.4805192,120.4259763,福安里
10408(實價),套房,嘉義市嘉義市北鎮街34巷1~30號,25.3,1房/1廳/1衛,5 /共6層,14.55,3.55,--,--萬,6萬,88萬,600台灣嘉義市西區北鎮街25巷21號,23.4883155,120.4322644,竹圍里
10408(實價),華廈(含車位),嘉義市嘉義市湖子內路1巷91~120號,22.2,2房/1廳/1衛,5 /共6層,33.37,5.28,--,--萬,8.7萬,290萬,600台灣嘉義市西區湖子內路92號,23.4532894,120.4423487,湖內里
10408(實價),住宅大樓,嘉義市嘉義市友愛路481~510號,15.8,5房/1廳/2衛,2 /共12層,43.21,5,--,--萬,9.1萬,395萬,600台灣嘉義市西區友愛路510號,23.4886401,120.4349389,保安里
10408(實價),住宅大樓,嘉義市嘉義市興達路541~570號,23.2,4房/2廳/2衛,1 /共15層,47.33,6.17,--,--萬,8.5萬,400萬,600台灣嘉義市西區興達路543號,23.4849038,120.4292597,保福里
10408(實價),透天厝,嘉義市嘉義市臺林街295巷1弄1~30號,40.2,5房/2廳/3衛,1 /共2層,24.25,24.5,--,--萬,17.7萬,430萬,找不到位址,無,無,無
10408(實價),透天厝,嘉義市嘉義市五福街203巷1~30號,37.6,3房/2廳/2衛,1 /共2層,26.21,21.48,--,--萬,12.1萬,318萬,600台灣嘉義市東區五福街203巷1號,23.4880593,120.4696815,王田里
10408(實價),透天厝,嘉義市嘉義市新民路756巷1~30號,44.5,4房/2廳/1衛,1 /共2層,22.86,17.85,--,--萬,6.3萬,145萬,600台灣嘉義市西區新民路756巷21號,23.4695786,120.4406201,自強里
10408(實價),住宅大樓,嘉義市嘉義市博東路91~120號,17.4,2房/1廳/1衛,12 /共22層,25.53,2.92,--,--萬,6.7萬,172萬,600台灣嘉義市東區博東路24-80號,23.4905823,120.4615667,太平里
10408(實價),透天厝,嘉義市嘉義市軍輝路162巷1~30號,39,3房/2廳/2衛,1 /共2層,25.63,21.78,--,--萬,13.3萬,340萬,600台灣嘉義市東區軍輝路162巷11號,23.4564755,120.4608005,興仁里
10408(實價),套房,嘉義市嘉義市中山路61~90號,35.5,1房/1廳/1衛,2 /共7層,13.46,3.03,--,--萬,7.8萬,105萬,600台灣嘉義市東區中山路76-88號,23.482229,120.459426,中山里
10408(實價),透天厝,嘉義市嘉義市新建街91巷61~90號,39.8,5房/1廳/4衛,1 /共2層,33.52,27.53,--,--萬,15.2萬,508萬,600台灣嘉義市西區新建街91巷59號,23.4699438,120.4368789,車店里
10408(實價),住宅大樓,嘉義市嘉義市向榮街211~240號,19.8,2房/1廳/1衛,8 /共12層,26.93,3.41,--,--萬,7.8萬,210萬,600台灣嘉義市西區向榮街30-94號,23.4883545,120.4458192,
10408(實價),住宅大樓(含車位),嘉義市嘉義市林森東路721~750號,12.4,4房/2廳/2衛,5 /共13層,60.55,14.95,--,--萬,7.8萬,470萬,600台灣嘉義市東區林森東路750號,23.4923366,120.4778693,圳頭里
10408(實價),住宅大樓,嘉義市嘉義市忠孝路781~810號,19.8,2房/2廳/1衛,2 /共11層,31.03,5.08,--,--萬,10.6萬,330萬,600台灣嘉義市東區忠孝路782號,23.5097412,120.4461873,荖藤里
10408(實價),套房,嘉義市嘉義市中興路481~510號,22.5,1房/1廳/1衛,6 /共7層,13.97,2.77,--,--萬,7.9萬,110萬,600台灣嘉義市西區福全街141號,23.4791193,120.4294451,福全里
10408(實價),透天厝,嘉義市嘉義市宣信街98巷1~30號,33.2,3房/2廳/2衛,1 /共2層,31.08,24.5,--,--萬,10.6萬,330萬,600台灣嘉義市東區宣信街30號,23.463079,120.4645467,芳安里
10408(實價),透天厝,嘉義市嘉義市育人路258巷58弄1~30號,16.8,4房/2廳/3衛,1 /共4層,54.5,23.75,--,--萬,10.4萬,565萬,600台灣嘉義市西區育人路213-315號,23.4729062,120.4148592,港坪里
10408(實價),華廈,嘉義市嘉義市民權路31~60號,20.3,2房/2廳/1衛,4 /共7層,23.94,2.52,--,--萬,10.4萬,250萬,600台灣嘉義市東區民權路32號,23.4843151,120.4647076,王田里
10408(實價),透天厝,嘉義市嘉義市姜安街86巷1~30號,0.7,4房/3廳/5衛,1 /共4層,66.46,25.52,--,--萬,12.4萬,822萬,600台灣嘉義市西區興達路861號,23.4816379,120.4234869,福安里
10408(實價),透天厝,嘉義市嘉義市大雅路二段331~360號,8.8,7房/3廳/8衛,1 /共4層,124.73,76.38,--,--萬,26.5萬,3300萬,600台灣嘉義市東區大雅路二段350號,23.4774055,120.475001,長竹里
10408(實價),住宅大樓,嘉義市嘉義市南京路61~90號,21.8,3房/2廳/2衛,7 /共12層,34.39,3.49,--,--萬,8萬,275萬,600台灣嘉義市西區南京路61號,23.456272,120.44052,湖內里
10408(實價),華廈,嘉義市嘉義市德明路31~60號,22.5,3房/2廳/3衛,3 /共7層,57.45,9.59,--,--萬,8.7萬,500萬,600台灣嘉義市西區德明路40號,23.4804358,120.4318721,福全里
10408(實價),透天厝,嘉義市嘉義市林森東路679巷31~60號,40.9,1房/1廳/1衛,1 /共2層,23.84,16.94,--,--萬,6.7萬,160萬,600台灣嘉義市東區林森東路60號,23.4867484,120.4566382,林森里
10408(實價),住宅大樓,嘉義市嘉義市博東路151~180號,17.4,3房/2廳/2衛,13 /共22層,45.69,5.6,--,--萬,11.2萬,510萬,600台灣嘉義市東區博東路80-112號,23.4908563,120.4605339,太平里
10408(實價),透天厝,嘉義市嘉義市彌陀路241巷1~30號,8.9,5房/1廳/5衛,1 /共3層,41.5,22.99,--,--萬,12.9萬,535萬,600台灣嘉義市東區彌陀路241巷1號,23.4682177,120.4657,芳草里
10408(實價),公寓(含車位),嘉義市嘉義市吳鳳南路166巷91~120號,22.7,3房/2廳/2衛,4 /共5層,41.91,8.86,--,--萬,6萬,250萬,600台灣嘉義市東區吳鳳南路166巷91號,23.4633775,120.4535294,安業里
10407(實價),透天厝,嘉義市嘉義市大同路492巷1~30號,0.2,4房/2廳/4衛,1 /共3層,56.84,29.52,--,--萬,13.2萬,750萬,600台灣嘉義市西區大同路11號,23.474944,120.4326618,磚磘里
10407(實價),店面(店鋪),嘉義市嘉義市文化路271~300號,0,13房/0廳/14衛,1 /共5層,222.82,63.75,--,--萬,34.8萬,7750萬,600台灣嘉義市東區文化路265-273號,23.4837062,120.4487044,北門里
10408(實價),華廈,嘉義市嘉義市北港路241~270號,21.2,3房/2廳/2衛,7 /共10層,33.52,5.27,--,--萬,8.5萬,285萬,600台灣嘉義市西區北港路244號,23.4781834,120.433642,福全里
10408(實價),華廈,嘉義市嘉義市永春一街1~30號,18.1,3房/1廳/1衛,6 /共6層,50.74,10.21,--,--萬,5.9萬,300萬,600台灣嘉義市西區永春一街30號,23.4776669,120.4265968,西平里
10408(實價),公寓,嘉義市嘉義市上海路91~120號,31.5,3房/2廳/2衛,4 /共5層,26.86,8.92,--,--萬,6萬,160萬,600台灣嘉義市西區上海路120號,23.4655479,120.432025,車店里
10408(實價),透天厝,嘉義市嘉義市友平街31~60號,16.3,7房/2廳/7衛,1 /共5層,65.22,19.06,--,--萬,18.4萬,1200萬,600台灣嘉義市西區友平街31號,23.4801153,120.4348262,福全里
10407(實價),住宅大樓,嘉義市嘉義市忠孝路781~810號,19.8,3房/2廳/2衛,5 /共11層,40.92,6.49,--,--萬,8.6萬,350萬,600台灣嘉義市東區忠孝路782號,23.5097412,120.4461873,荖藤里
10407(實價),透天厝,嘉義市嘉義市信義路55巷1~30號,29.1,4房/3廳/3衛,1 /共2層,31.81,22.08,--,--萬,13.4萬,425萬,600台灣嘉義市西區信義路49-1號,23.4743187,120.4343596,西平里
10407(實價),透天厝,嘉義市嘉義市世賢路四段421~450號,1,4房/2廳/4衛,1 /共4層,78.26,0,--,--萬,7.3萬,572萬,600台灣嘉義市西區阿里山公路412號,23.4639062,120.4505986,美源里
10407(實價),透天厝,嘉義市嘉義市世賢路四段421~450號,1,5房/2廳/5衛,1 /共4層,78.27,0,--,--萬,7.3萬,572萬,600台灣嘉義市西區阿里山公路412號,23.4639062,120.4505986,美源里
10407(實價),華廈,嘉義市嘉義市永吉一街61~90號,20.4,3房/2廳/3衛,7 /共7層,35.27,4.79,--,--萬,10.5萬,370萬,600台灣嘉義市西區永吉一街23號,23.4931552,120.4377395,新厝里
10407(實價),透天厝,嘉義市嘉義市世賢路四段421~450號,1,5房/2廳/5衛,1 /共4層,78.26,0,--,--萬,7.3萬,572萬,600台灣嘉義市西區阿里山公路412號,23.4639062,120.4505986,美源里
10407(實價),透天厝,嘉義市嘉義市世賢路四段421~450號,1,4房/2廳/4衛,1 /共4層,78.7,0,--,--萬,7.2萬,567萬,600台灣嘉義市西區阿里山公路412號,23.4639062,120.4505986,美源里
10407(實價),透天厝,嘉義市嘉義市大同路438巷1弄1~30號,0.2,4房/2廳/4衛,1 /共4層,69.81,31.58,--,--萬,11.5萬,800萬,600台灣嘉義市西區大同路438巷1弄32號,23.4749078,120.4159637,港坪里
10407(實價),店面(店鋪),嘉義市嘉義市新生路811~840號,0.1,4房/3廳/3衛,3 /共3層,64.65,31.76,--,--萬,54.1萬,3500萬,600台灣嘉義市東區新生路795號,23.4958412,120.452788,仁義里
10407(實價),公寓,嘉義市嘉義市竹圍路31~60號,10.8,3房/2廳/3衛,1 /共4層,55.61,22.08,--,--萬,13.8萬,770萬,600台灣嘉義市西區竹圍路29-33號,23.4878458,120.4327692,竹圍里
10407(實價),店面(店鋪),嘉義市嘉義市新生路811~840號,0.1,4房/3廳/3衛,3 /共3層,65.84,32.37,--,--萬,57.7萬,3800萬,600台灣嘉義市東區新生路795號,23.4958412,120.452788,仁義里
10407(實價),透天厝,嘉義市嘉義市玉山路956巷15弄91~120號,0.1,3房/3廳/4衛,1 /共3層,53.3,30.18,--,--萬,11.3萬,600萬,600台灣嘉義市西區玉山路104號,23.4726976,120.4290426,磚磘里
10407(實價),住宅大樓,嘉義市嘉義市忠孝路781~810號,19.8,3房/2廳/2衛,6 /共11層,26.8,4.24,--,--萬,9.3萬,250萬,600台灣嘉義市東區忠孝路782號,23.5097412,120.4461873,荖藤里
10407(實價),華廈(含車位),嘉義市嘉義市永福三街1~30號,22.4,2房/2廳/1衛,6 /共7層,32.84,5.06,--,--萬,9.7萬,320萬,600台灣嘉義市西區永福三街30號,23.4736996,120.4249398,磚磘里
10407(實價),店面(店鋪),嘉義市嘉義市新生路811~840號,0.1,4房/3廳/3衛,2 /共3層,63.06,0,--,--萬,5.2萬,330萬,600台灣嘉義市東區新生路795號,23.4958412,120.452788,仁義里
10407(實價),透天厝,嘉義市嘉義市義教街731巷31~60號,0.1,9房/0廳/9衛,1 /共3層,76.9,0,--,--萬,5.7萬,440萬,600台灣嘉義市東區義教街731巷60號,23.4965168,120.4542076,義教里
10407(實價),透天厝,嘉義市嘉義市自由路361~390號,0.1,5房/3廳/4衛,1 /共4層,106.8,43.86,--,--萬,19.2萬,2050萬,600台灣嘉義市西區自由路381號,23.4919643,120.4316794,保安里
10407(實價),透天厝,嘉義市嘉義市自由路331~360號,0.1,4房/3廳/3衛,1 /共4層,68.01,36.3,--,--萬,21.4萬,1455萬,600台灣嘉義市西區自由路332號,23.490457,120.4351915,保生里
10407(實價),透天厝,嘉義市嘉義市自由路331~360號,0.1,3房/2廳/3衛,1 /共4層,73.77,32.07,--,--萬,19.1萬,1410萬,600台灣嘉義市西區自由路332號,23.490457,120.4351915,保生里
10407(實價),透天厝,嘉義市嘉義市自由路331~360號,0.1,4房/3廳/3衛,1 /共4層,79.01,36.3,--,--萬,20萬,1580萬,600台灣嘉義市西區自由路332號,23.490457,120.4351915,保生里
10407(實價),套房,嘉義市嘉義市玉山路158巷91~120號,20,1房/1廳/1衛,11 /共12層,11.92,1.75,--,--萬,8.6萬,102萬,600台灣嘉義市西區玉山路104號,23.4726976,120.4290426,磚磘里
10407(實價),透天厝,嘉義市嘉義市自由路331~360號,0.1,3房/2廳/3衛,1 /共4層,61.05,26.92,--,--萬,19萬,1160萬,600台灣嘉義市西區自由路332號,23.490457,120.4351915,保生里
10407(實價),住宅大樓,嘉義市嘉義市興業西路121~150號,10.7,3房/2廳/2衛,10 /共14層,57.07,9.46,--,--萬,10.2萬,580萬,600台灣嘉義市西區興業西路121號,23.4682309,120.4437735,美源里
10407(實價),透天厝,嘉義市嘉義市玉山路956巷15弄61~90號,0.1,4房/3廳/4衛,1 /共3層,53.3,30.4,--,--萬,12萬,642萬,600台灣嘉義市西區玉山路68號,23.4730612,120.4305863,磚磘里
10407(實價),透天厝,嘉義市嘉義市博愛路一段361~390號,20.8,6房/3廳/6衛,1 /共5層,34.97,15.13,--,--萬,20萬,700萬,600台灣嘉義市西區縱貫公路334-368號,23.4876446,120.4445806,
10407(實價),透天厝,嘉義市嘉義市玉山路956巷15弄61~90號,0.1,4房/3廳/4衛,1 /共3層,50.34,30.37,--,--萬,12.5萬,630萬,600台灣嘉義市西區玉山路68號,23.4730612,120.4305863,磚磘里
10407(實價),透天厝,嘉義市嘉義市福州三街31~60號,0.6,6房/2廳/6衛,1 /共4層,98.08,39.93,--,--萬,20.6萬,2020萬,600台灣嘉義市西區福州三街31號,23.4627391,120.435471,福民里
10407(實價),透天厝,嘉義市嘉義市崇文街241~270號,8.5,5房/3廳/5衛,1 /共4層,85.5,29.85,--,--萬,19.9萬,1700萬,600台灣嘉義市西區崇文街239-249號,23.4717871,120.450024,育英里
10407(實價),透天厝,嘉義市嘉義市玉山路956巷15弄121~150號,0.1,4房/3廳/4衛,1 /共3層,59.42,40.45,--,--萬,12.3萬,730萬,600台灣嘉義市西區玉山路134號,23.4726067,120.4280599,磚磘里
10407(實價),華廈,嘉義市嘉義市林森東路211~240號,25.5,4房/2廳/2衛,5 /共7層,45.25,9.79,--,--萬,9.5萬,430萬,600台灣嘉義市東區林森東路282-286號,23.4882305,120.4621695,太平里
10407(實價),住宅大樓,嘉義市嘉義市彌陀路151~180號,19.3,4房/2廳/2衛,12 /共20層,48.51,3.78,--,--萬,8.2萬,398萬,600台灣嘉義市東區彌陀路180號,23.4724381,120.4638868,短竹里
10407(實價),透天厝,嘉義市嘉義市義教街731巷31~60號,0.1,4房/1廳/5衛,1 /共3層,63.03,28.44,--,--萬,21.6萬,1360萬,600台灣嘉義市東區義教街731巷60號,23.4965168,120.4542076,義教里
10407(實價),透天厝,嘉義市嘉義市義教街731巷31~60號,0.1,4房/1廳/5衛,1 /共3層,62.15,27.83,--,--萬,21.9萬,1360萬,600台灣嘉義市東區義教街731巷60號,23.4965168,120.4542076,義教里
10407(實價),住宅大樓,嘉義市嘉義市興達路541~570號,21.3,3房/1廳/2衛,10 /共12層,43.88,5.12,--,--萬,7.9萬,347萬,600台灣嘉義市西區興達路543號,23.4849038,120.4292597,保福里
10407(實價),透天厝,嘉義市嘉義市林森東路451~480號,10.3,4房/2廳/3衛,1 /共5層,77.69,47.46,--,--萬,12.4萬,960萬,600台灣嘉義市東區林森東路480號,23.491523,120.4698939,圳頭里
10407(實價),透天厝,嘉義市嘉義市大同路438巷1弄1~30號,0.2,5房/2廳/6衛,1 /共4層,69.87,32.52,--,--萬,12.2萬,850萬,600台灣嘉義市西區大同路438巷1弄32號,23.4749078,120.4159637,港坪里
10407(實價),透天厝,嘉義市嘉義市大同路492巷1~30號,0.2,3房/2廳/4衛,1 /共3層,58.72,32.36,--,--萬,12.9萬,755萬,600台灣嘉義市西區大同路11號,23.474944,120.4326618,磚磘里
10407(實價),店面(店鋪),嘉義市嘉義市力行街1~30號,20.7,6房/2廳/4衛,-1 /共5層,105.32,20.27,--,--萬,8.5萬,900萬,600台灣嘉義市西區力行街30號,23.4736351,120.4381021,永和里
10407(實價),透天厝,嘉義市嘉義市五福街203巷31~60號,37.5,3房/2廳/2衛,1 /共2層,26.32,21.78,--,--萬,6.1萬,160萬,600台灣嘉義市東區五福街203巷31號,23.4886054,120.4696564,王田里
10407(實價),透天厝,嘉義市嘉義市忠孝路181~210號,20.7,4房/2廳/3衛,1 /共5層,71.9,23.6,--,--萬,17.4萬,1250萬,600台灣嘉義市東區忠孝路210號,23.4828409,120.4540141,中山里
10407(實價),店面(店鋪),嘉義市嘉義市新生路811~840號,0.1,2房/1廳/3衛,1 /共3層,88.83,0,--,--萬,5.3萬,469萬,600台灣嘉義市東區新生路795號,23.4958412,120.452788,仁義里
10407(實價),透天厝,嘉義市嘉義市義教街731巷31~60號,0.1,4房/1廳/5衛,1 /共3層,62.15,27.83,--,--萬,20.7萬,1288萬,600台灣嘉義市東區義教街731巷60號,23.4965168,120.4542076,義教里
10407(實價),住宅大樓(含車位),嘉義市嘉義市雅竹路1~30號,7.4,2房/2廳/2衛,4 /共11層,40.18,7.34,--,--萬,16.9萬,680萬,600台灣嘉義市東區雅竹路30號,23.4764591,120.4742352,長竹里
10407(實價),住宅大樓,嘉義市嘉義市溪興街91~120號,22.6,4房/1廳/2衛,9 /共16層,61.25,5.08,--,--萬,5.4萬,330萬,600台灣嘉義市東區溪興街75-129號,23.4556029,120.4575015,興村里
10407(實價),華廈,嘉義市嘉義市遠東街151~180號,22.2,1房/1廳/1衛,7 /共9層,12.84,1.36,--,--萬,10.8萬,138萬,600台灣嘉義市西區遠東街151號,23.4844444,120.4350668,竹圍里
10407(實價),透天厝,嘉義市嘉義市保仁三街162巷1~30號,41.8,3房/2廳/2衛,1 /共2層,18.51,15.43,--,--萬,3.5萬,65萬,600台灣嘉義市東區保仁三街1號,23.503521,120.4533602,後湖里
10407(實價),住宅大樓(含車位),嘉義市嘉義市興達路691~720號,20.6,3房/2廳/2衛,8 /共14層,38.97,4.69,--,--萬,8.5萬,330萬,600台灣嘉義市西區興達路720號,23.484763,120.4253362,福安里
10407(實價),透天厝,嘉義市嘉義市仁愛路91~120號,30.5,4房/2廳/3衛,1 /共3層,55.85,26.92,--,--萬,15.4萬,860萬,600台灣嘉義市西區仁愛路79-93號,23.4672014,120.4430298,
10407(實價),透天厝,嘉義市嘉義市吳鳳南路49巷1~30號,46.2,4房/2廳/2衛,1 /共2層,29.29,24.81,--,--萬,17.1萬,500萬,600台灣嘉義市東區吳鳳南路521巷30號,23.464701,120.4571913,安寮里
10407(實價),住宅大樓,嘉義市嘉義市仁愛路331~360號,19.5,1房/0廳/1衛,12 /共14層,20.22,1.19,--,--萬,6.3萬,127萬,600台灣嘉義市西區仁愛路398-410號,23.4736556,120.4424013,新富里
10407(實價),華廈,嘉義市嘉義市泰瑞二街61~90號,22.9,3房/2廳/2衛,4 /共7層,35.48,6.4,--,--萬,8.7萬,310萬,600台灣嘉義市西區泰山三街70號,23.4857978,120.4256421,福安里
10407(實價),住宅大樓,嘉義市嘉義市小雅路181~210號,22.1,3房/2廳/2衛,4 /共16層,33.7,4.03,--,--萬,6.8萬,230萬,600台灣嘉義市東區小雅路185號,23.4726044,120.4740688,蘭潭里
10407(實價),套房(含車位),嘉義市嘉義市友愛路541~570號,20,1房/1廳/1衛,9 /共14層,17.95,3.28,--,--萬,7萬,125萬,600台灣嘉義市西區友愛路570號,23.4900956,120.4362421,保生里
10407(實價),華廈(含車位),嘉義市嘉義市大同路451~480號,20.9,3房/2廳/2衛,5 /共8層,50.37,7.08,--,--萬,9.1萬,460萬,600台灣嘉義市西區大同路449-453號,23.4761675,120.4231992,港坪里
10407(實價),透天厝(含車位),嘉義市嘉義市大富西街31~60號,10.6,4房/3廳/3衛,1 /共3層,50.39,30.13,3.78,--萬,14.9萬,750萬,600台灣嘉義市西區大富西街60號,23.4645284,120.4136174,劉厝里
10407(實價),公寓,嘉義市嘉義市溪興街181~210號,32.6,2房/1廳/1衛,4 /共5層,16.64,4.84,--,--萬,8.3萬,138萬,600台灣嘉義市東區溪興街179-185號,23.4547661,120.4560574,興村里
10407(實價),透天厝,嘉義市嘉義市吳鳳南路61~90號,56,2房/2廳/1衛,1 /共1層,13.4,24.5,--,--萬,62.2萬,833萬,600台灣嘉義市東區吳鳳南路61號,23.472129,120.4541769,興南里
10407(實價),華廈(含車位),嘉義市嘉義市興仁街38巷61~90號,20.6,3房/2廳/2衛,4 /共9層,40.84,10.01,--,--萬,8.4萬,345萬,600台灣嘉義市東區興仁街38巷61號,23.457856,120.464412,興仁里
10407(實價),華廈,嘉義市嘉義市永康三街1~30號,23.4,2房/1廳/1衛,2 /共6層,19,4.2,--,--萬,7.9萬,150萬,600台灣嘉義市西區永康三街1號,23.4755222,120.425434,磚磘里
10407(實價),住宅大樓,嘉義市嘉義市友孝路271~300號,15.7,3房/2廳/2衛,10 /共12層,28.69,3.48,--,--萬,11.3萬,325萬,600台灣嘉義市西區友孝路300號,23.4879919,120.4353601,保安里
10407(實價),套房,嘉義市嘉義市小雅路331~360號,22.1,1房/1廳/1衛,4 /共12層,8.5,1.09,--,--萬,6.3萬,53萬,600台灣嘉義市東區小雅路250號,23.4745693,120.4736369,蘭潭里
10407(實價),住宅大樓,嘉義市嘉義市小雅路181~210號,22.1,3房/2廳/2衛,6 /共16層,30.45,3.64,--,--萬,8.9萬,270萬,600台灣嘉義市東區小雅路185號,23.4726044,120.4740688,蘭潭里
10407(實價),住宅大樓,嘉義市嘉義市博愛路一段361~390號,21.6,3房/2廳/2衛,12 /共12層,32.1,4.35,--,--萬,7.2萬,230萬,600台灣嘉義市西區縱貫公路334-368號,23.4876446,120.4445806,
10407(實價),華廈,嘉義市嘉義市里2鄰中山路1~30號,35.2,2房/1廳/1衛,7 /共7層,20.69,4.29,--,--萬,8萬,165萬,600台灣嘉義市東區中山路46號,23.4825597,120.4608711,中山里
10407(實價),透天厝,嘉義市嘉義市自治里16鄰西榮街151~180號,41.2,6房/2廳/3衛,1 /共3層,58.06,12.23,--,--萬,10萬,580萬,找不到位址,無,無,無
10407(實價),華廈,嘉義市嘉義市文雅街140巷1~30號,19.1,4房/2廳/3衛,1 /共9層,64.49,10.51,--,--萬,10.3萬,666萬,600台灣嘉義市東區文雅街140巷11號,23.4840615,120.4853228,文雅里
10407(實價),住宅大樓,嘉義市嘉義市友愛路481~510號,15.7,3房/2廳/2衛,10 /共12層,34.32,3.75,--,--萬,9萬,310萬,600台灣嘉義市西區友愛路510號,23.4886401,120.4349389,保安里
10407(實價),公寓,嘉義市嘉義市民權路61~90號,34.8,2房/1廳/1衛,4 /共5層,18.4,7.38,--,--萬,9萬,165萬,600台灣嘉義市東區民權路90號,23.483832,120.4594724,中山里
10407(實價),透天厝,嘉義市嘉義市大聖北街91~120號,1.2,4房/2廳/3衛,1 /共4層,76.63,44.78,--,--萬,16.7萬,1280萬,600台灣嘉義市西區大聖北街80號,23.4624574,120.419207,劉厝里
10407(實價),華廈,嘉義市嘉義市成功街31~60號,32.5,4房/2廳/2衛,2 /共6層,41.45,9.86,--,--萬,8.2萬,340萬,600台灣嘉義市西區成功街60號,23.4723109,120.4444537,培元里
10407(實價),華廈,嘉義市嘉義市泰瑞二街61~90號,22.9,3房/2廳/2衛,2 /共7層,34.91,6.24,--,--萬,9.2萬,321萬,600台灣嘉義市西區泰山三街70號,23.4857978,120.4256421,福安里
10407(實價),透天厝,嘉義市嘉義市五福街203巷1~30號,37.5,2房/1廳/2衛,1 /共2層,26.8,21.78,--,--萬,13.1萬,350萬,600台灣嘉義市東區五福街203巷1號,23.4880593,120.4696815,王田里
10407(實價),透天厝,嘉義市嘉義市西區大統路110巷1~30號,0.2,4房/2廳/4衛,1 /共4層,61.2,33.39,--,--萬,17.6萬,1080萬,600台灣嘉義市西區大統路30號,23.4696881,120.4277597,磚磘里
10407(實價),透天厝,嘉義市嘉義市西區大統路110巷1~30號,0.2,4房/2廳/4衛,1 /共4層,63.62,34.9,--,--萬,18.5萬,1180萬,600台灣嘉義市西區大統路30號,23.4696881,120.4277597,磚磘里
10407(實價),華廈,嘉義市嘉義市盧厝91~120號,25.3,3房/2廳/2衛,7 /共7層,36.85,7.64,--,--萬,7.3萬,270萬,600台灣嘉義市西區民生南路120巷1號,23.469895,120.4465293,致遠里
10407(實價),透天厝,嘉義市嘉義市西區大統路110巷1~30號,0.2,5房/2廳/4衛,1 /共4層,59.08,33.09,--,--萬,17.6萬,1038萬,600台灣嘉義市西區大統路30號,23.4696881,120.4277597,磚磘里
10407(實價),透天厝,嘉義市嘉義市西區大統路110巷1~30號,0.2,4房/2廳/5衛,1 /共4層,64.83,36.11,--,--萬,19.4萬,1260萬,600台灣嘉義市西區大統路30號,23.4696881,120.4277597,磚磘里
10407(實價),透天厝,嘉義市嘉義市成功街1~30號,25.4,6房/2廳/6衛,1 /共3層,61.43,27.23,--,--萬,17.1萬,1050萬,600台灣嘉義市西區成功街10號,23.4725334,120.4465949,導明里
10407(實價),華廈,嘉義市嘉義市世賢路一段1~30號,22.5,3房/2廳/2衛,5 /共8層,42.9,7.46,--,--萬,10.5萬,450萬,600台灣嘉義市東區世賢路一段27號,23.4953454,120.4501138,中庄里
10407(實價),透天厝,嘉義市嘉義市杭州三街1~30號,27,7房/3廳/4衛,1 /共5層,91.6,24.81,--,--萬,13.4萬,1230萬,600台灣嘉義市西區杭州三街30號,23.4665743,120.4445746,美源里
10407(實價),住宅大樓,嘉義市嘉義市義教街601~630號,21,3房/2廳/2衛,1 /共11層,58.76,9.44,--,--萬,9.1萬,532萬,600台灣嘉義市東區義教街601號,23.4983986,120.4573523,頂庄里
10407(實價),公寓,嘉義市嘉義市宣信街256巷1~30號,30.2,3房/1廳/1衛,1 /共5層,32.1,9.45,--,--萬,9.3萬,300萬,600台灣嘉義市東區宣信街30號,23.463079,120.4645467,芳安里
10407(實價),住宅大樓,嘉義市嘉義市南京路61~90號,21.7,2房/1廳/2衛,1 /共12層,41.11,4.11,--,--萬,12.3萬,505萬,600台灣嘉義市西區南京路61號,23.456272,120.44052,湖內里
10407(實價),華廈,嘉義市嘉義市自強街195巷31~60號,24.1,4房/2廳/2衛,4 /共7層,42.56,97.29,--,--萬,8.5萬,360萬,600台灣嘉義市西區自強街195巷27號,23.464458,120.4203273,劉厝里
10407(實價),透天厝,嘉義市嘉義市大同路481~510號,0.2,4房/2廳/3衛,1 /共4層,63.58,26.08,--,--萬,14.4萬,915萬,600台灣嘉義市西區大同路481號,23.4759013,120.4225765,港坪里
10407(實價),透天厝,嘉義市嘉義市大同路481~510號,0.2,4房/2廳/3衛,1 /共4層,66.61,32.09,--,--萬,13.9萬,925萬,600台灣嘉義市西區大同路481號,23.4759013,120.4225765,港坪里
10407(實價),透天厝,嘉義市嘉義市大同路492巷1~30號,0.2,4房/2廳/4衛,1 /共3層,65.81,33.86,--,--萬,11.9萬,780萬,600台灣嘉義市西區大同路11號,23.474944,120.4326618,磚磘里
10407(實價),住宅大樓(含車位),嘉義市嘉義市興業西路121~150號,10.7,3房/2廳/2衛,11 /共14層,28.29,4.48,--,--萬,9.5萬,270萬,600台灣嘉義市西區興業西路121號,23.4682309,120.4437735,美源里
10407(實價),透天厝,嘉義市嘉義市大同路481~510號,0.2,4房/2廳/4衛,1 /共4層,65.32,32.66,--,--萬,14萬,915萬,600台灣嘉義市西區大同路481號,23.4759013,120.4225765,港坪里
10407(實價),透天厝,嘉義市嘉義市蘭州五街61~90號,29.3,4房/2廳/3衛,1 /共2層,32.69,26.92,--,--萬,16.2萬,530萬,600台灣嘉義市西區蘭州五街90號,23.4678201,120.4308625,車店里
10407(實價),透天厝,嘉義市嘉義市大同路492巷1~30號,0.2,4房/2廳/4衛,1 /共3層,60.34,33.66,--,--萬,12.4萬,750萬,600台灣嘉義市西區大同路11號,23.474944,120.4326618,磚磘里
10407(實價),透天厝,嘉義市嘉義市日新街218巷31~60號,1.7,5房/2廳/4衛,1 /共4層,85.05,70.86,--,--萬,21.2萬,1800萬,600台灣嘉義市東區日新街31號,23.4674925,120.4687269,短竹里
10407(實價),透天厝,嘉義市嘉義市大同路438巷1弄1~30號,0.2,4房/2廳/4衛,1 /共4層,55.53,26.53,--,--萬,14萬,780萬,600台灣嘉義市西區大同路438巷1弄32號,23.4749078,120.4159637,港坪里
10407(實價),住宅大樓(含車位),嘉義市嘉義市忠孝路781~810號,19.8,3房/2廳/2衛,8 /共11層,43.56,6.77,--,--萬,7.2萬,315萬,600台灣嘉義市東區忠孝路782號,23.5097412,120.4461873,荖藤里
10407(實價),透天厝,嘉義市嘉義市大同路492巷1~30號,0.2,4房/2廳/4衛,1 /共3層,58.57,32.36,--,--萬,12.9萬,755萬,600台灣嘉義市西區大同路11號,23.474944,120.4326618,磚磘里
10407(實價),華廈,嘉義市嘉義市忠孝路571~600號,23.7,2房/1廳/1衛,6 /共6層,17.57,4.34,--,--萬,10.2萬,180萬,600台灣嘉義市東區忠孝路583號,23.5020163,120.4485322,後湖里
10407(實價),套房,嘉義市嘉義市金龍街31~60號,21.6,1房/1廳/1衛,7 /共7層,14.22,2.62,--,--萬,10.5萬,150萬,600台灣嘉義市東區金龍街33-35號,23.4789667,120.4707766,東川里
10407(實價),華廈,嘉義市嘉義市自強街195巷1~30號,24.7,3房/2廳/2衛,6 /共8層,35.36,5.65,--,--萬,8.4萬,298萬,600台灣嘉義市西區自強街195巷32-1號,23.4643382,120.4201285,劉厝里
10407(實價),透天厝,嘉義市嘉義市潭頂路130巷1~30號,1.8,5房/1廳/4衛,1 /共3層,84.84,53.05,--,--萬,19.2萬,1625萬,600台灣嘉義市東區潭頂路,23.4753048,120.4757715,長竹里
10407(實價),華廈,嘉義市嘉義市北社尾路1~30號,22.2,4房/2廳/2衛,4 /共10層,46.77,6.95,--,--萬,7.8萬,365萬,600台灣嘉義市西區北社尾路31號,23.4916264,120.4286732,保安里
10407(實價),透天厝,嘉義市嘉義市軍輝路271~300號,0.2,4房/2廳/4衛,1 /共4層,69.71,43.22,--,--萬,20.4萬,1425萬,600台灣嘉義市東區軍輝路271號,23.4540098,120.4586287,興仁里
10407(實價),華廈,嘉義市嘉義市林森東路211巷1~30號,25.5,4房/2廳/2衛,3 /共7層,46.52,10.11,--,--萬,10.5萬,488萬,600台灣嘉義市東區林森東路269巷1弄30號,23.4901012,120.4654374,新店里
10407(實價),住宅大樓,嘉義市嘉義市南京路61~90號,21.7,4房/2廳/2衛,5 /共12層,45.42,4.49,--,--萬,8.8萬,400萬,600台灣嘉義市西區南京路61號,23.456272,120.44052,湖內里
10407(實價),住宅大樓,嘉義市嘉義市保建街31~60號,22.1,3房/2廳/2衛,9 /共12層,36.81,6.2,--,--萬,8.4萬,310萬,600台灣嘉義市東區保建街60號,23.5006199,120.4530035,後湖里
10407(實價),透天厝(含車位),嘉義市嘉義市永樂二街121~150號,0.4,6房/2廳/5衛,1 /共4層,123.21,69.27,11.34,--萬,25.2萬,3100萬,600台灣嘉義市西區永樂二街76號,23.4747823,120.4219375,港坪里
10407(實價),透天厝,嘉義市嘉義市北港路271巷1~30號,7.6,5房/3廳/5衛,1 /共3層,60.08,28.53,--,--萬,17.5萬,1050萬,600台灣嘉義市西區北港路30號,23.4756655,120.4355605,福全里
10407(實價),店面(店鋪),嘉義市嘉義市興業西路391~420號,29.4,4房/3廳/4衛,1 /共4層,88.06,29.04,--,--萬,21.8萬,1920萬,600台灣嘉義市西區興業西路420號,23.4677473,120.4360368,車店里
10407(實價),透天厝,嘉義市嘉義市垂楊路151~180號,35.9,4房/2廳/2衛,1 /共2層,35.43,32.37,--,--萬,16.9萬,600萬,600台灣嘉義市東區垂楊路151號,23.4742927,120.4572621,宣信里
10407(實價),辦公商業大樓,嘉義市嘉義市文化路151~180號,19.3,0房/0廳/0衛,1 /共11層,6.5,1.95,--,--萬,10.5萬,68萬,600台灣嘉義市西區文化路151號,23.4803561,120.4492909,國華里
10407(實價),華廈,嘉義市嘉義市文化路631~660號,22.2,3房/1廳/2衛,4 /共7層,25.79,4.68,--,--萬,8.3萬,215萬,600台灣嘉義市西區文化路646-648號,23.4945654,120.4439932,香湖里
10407(實價),透天厝,嘉義市嘉義市後厝仔1~30號,33.6,3房/2廳/2衛,1 /共2層,28.04,23.29,--,--萬,16.3萬,458萬,600台灣嘉義市東區林森東路269巷1弄30號,23.4901012,120.4654374,新店里
10407(實價),套房,嘉義市嘉義市光彩街511~540號,22.3,1房/0廳/1衛,5 /共8層,14.05,1.51,--,--萬,7.1萬,100萬,600台灣嘉義市西區光彩街491號,23.4778275,120.4457525,西榮里
10407(實價),住宅大樓,嘉義市嘉義市八德路301~330號,21,3房/2廳/2衛,7 /共12層,73.99,6.9,--,--萬,6.7萬,495萬,600台灣嘉義市西區八德路330號,23.4912488,120.4302424,保安里
10407(實價),店面(店鋪),嘉義市嘉義市彌陀路151~180號,19.3,3房/2廳/2衛,1 /共20層,50.38,4.44,--,--萬,9.5萬,480萬,600台灣嘉義市東區彌陀路180號,23.4724381,120.4638868,短竹里
10407(實價),透天厝,嘉義市嘉義市國聖四街31~60號,20.3,5房/2廳/4衛,1 /共5層,86.94,30.55,--,--萬,8.1萬,700萬,600台灣嘉義市西區國聖四街30號,23.4862529,120.4294016,保福里
10407(實價),透天厝,嘉義市嘉義市保仁三街162巷1弄1~30號,41.8,3房/2廳/2衛,1 /共2層,18.63,15.43,--,--萬,8萬,150萬,600台灣嘉義市東區保仁三街1號,23.503521,120.4533602,後湖里
10407(實價),華廈(含車位),嘉義市嘉義市永康二街31~60號,23.6,3房/1廳/2衛,7 /共7層,42.86,6.49,--,--萬,7.8萬,336萬,600台灣嘉義市西區永康二街31號,23.4754291,120.4242712,磚磘里
10407(實價),華廈(含車位),嘉義市嘉義市建成街181~210號,24,1房/1廳/1衛,5 /共6層,21.11,3.39,--,--萬,8.3萬,176萬,600台灣嘉義市西區建成街195號,23.4687551,120.4375142,車店里
10407(實價),住宅大樓,嘉義市嘉義市蘭井街151~180號,22.4,2房/1廳/1衛,7 /共14層,27.64,3.96,--,--萬,9.7萬,268萬,600台灣嘉義市東區蘭井街155號,23.4775913,120.4516521,中央里
10407(實價),透天厝,嘉義市嘉義市金龍街181~210號,1.8,5房/2廳/4衛,1 /共3層,63.8,31.76,--,--萬,28.2萬,1800萬,600台灣嘉義市東區金龍街210號,23.479448,120.469279,東川里
10407(實價),住宅大樓(含車位),嘉義市嘉義市博東路151~180號,17.3,4房/2廳/2衛,10 /共22層,54.76,5.6,4.54,--萬,8.3萬,455萬,600台灣嘉義市東區博東路80-112號,23.4908563,120.4605339,太平里
10407(實價),住宅大樓,嘉義市嘉義市蘭井街151~180號,22.4,5房/0廳/5衛,12 /共14層,42.62,6.08,--,--萬,8.8萬,375萬,600台灣嘉義市東區蘭井街155號,23.4775913,120.4516521,中央里
10407(實價),住宅大樓,嘉義市嘉義市忠孝路781~810號,19.8,2房/2廳/1衛,7 /共11層,27.7,4.24,--,--萬,9萬,248萬,600台灣嘉義市東區忠孝路782號,23.5097412,120.4461873,荖藤里
10407(實價),透天厝,嘉義市嘉義市芳安路349巷1~30號,55.2,2房/1廳/1衛,1 /共1層,11.58,14.52,--,--萬,9.5萬,110萬,600台灣嘉義市東區芳安路1號,23.4688333,120.4654,芳草里
10407(實價),透天厝,嘉義市嘉義市北鎮街148巷1~30號,43.6,2房/2廳/1衛,1 /共1層,15.72,14.22,--,--萬,9.9萬,156萬,600台灣嘉義市西區北鎮街25巷21號,23.4883155,120.4322644,竹圍里
10407(實價),華廈,嘉義市嘉義市自強街195巷1~30號,24.7,3房/2廳/2衛,2 /共8層,28.73,4.04,--,--萬,6.6萬,190萬,600台灣嘉義市西區自強街195巷32-1號,23.4643382,120.4201285,劉厝里
10407(實價),透天厝,嘉義市嘉義市彌陀路225巷31~60號,36,3房/2廳/2衛,1 /共2層,31.21,25.41,--,--萬,11.2萬,350萬,600台灣嘉義市東區彌陀路225巷31號,23.4671473,120.4658971,芳草里
10407(實價),公寓,嘉義市嘉義市玉山路251巷37弄1~30號,22.7,3房/2廳/2衛,5 /共5層,34.91,10.42,--,--萬,5.7萬,200萬,600台灣嘉義市西區玉山路251巷37弄20號,23.4700941,120.425317,劉厝里
10407(實價),住宅大樓,嘉義市嘉義市大雅路二段433巷28弄31~60號,20.5,1房/1廳/1衛,7 /共12層,23.57,2.39,--,--萬,10.6萬,250萬,600台灣嘉義市東區大雅路二段433巷36-1號,23.4763949,120.4727447,長竹里
10407(實價),透天厝,嘉義市嘉義市成功東街1巷1~30號,36.7,4房/2廳/1衛,1 /共2層,22.16,24.05,--,--萬,16.2萬,360萬,600台灣嘉義市西區成功東街30號,23.4727508,120.4485414,導明里
10407(實價),華廈,嘉義市嘉義市南京路61~90號,21.7,2房/1廳/1衛,5 /共12層,20.4,2.07,--,--萬,11.3萬,230萬,600台灣嘉義市西區南京路61號,23.456272,120.44052,湖內里
10407(實價),華廈(含車位),嘉義市嘉義市自強街195巷31~60號,19.8,2房/1廳/1衛,6 /共7層,24.9,4.13,--,--萬,8.4萬,210萬,600台灣嘉義市西區自強街195巷27號,23.464458,120.4203273,劉厝里
10407(實價),透天厝,嘉義市嘉義市重慶六街120巷1~30號,1.3,4房/2廳/5衛,1 /共3層,74.12,0,--,--萬,4.9萬,360萬,600台灣嘉義市西區重慶六街51號,23.4563253,120.4302859,紅瓦里
10407(實價),透天厝,嘉義市嘉義市五顯街93巷1~30號,29.8,2房/1廳/1衛,1 /共2層,15.59,15.13,--,--萬,18.6萬,290萬,600台灣嘉義市西區五顯街102號,23.4856704,120.4450691,北榮里
10407(實價),透天厝,嘉義市嘉義市西區國華里7鄰民權路421~450號,35.8,4房/3廳/4衛,1 /共5層,127.93,36,--,--萬,17.2萬,2200萬,600台灣嘉義市西區民權路421號,23.4819134,120.4469272,國華里
10407(實價),華廈,嘉義市嘉義市國聖四街31~60號,18,3房/2廳/2衛,7 /共9層,40.54,6.92,--,--萬,7.9萬,320萬,600台灣嘉義市西區國聖四街30號,23.4862529,120.4294016,保福里
10407(實價),華廈,嘉義市嘉義市玉康路391~420號,23.2,3房/1廳/2衛,1 /共7層,39.55,6.79,--,--萬,10.1萬,400萬,600台灣嘉義市西區玉康路391號,23.4759449,120.4252324,磚瑤里
10407(實價),華廈,嘉義市嘉義市垂楊路631~660號,31,2房/1廳/1衛,7 /共10層,17.65,1.77,--,--萬,8.2萬,145萬,600台灣嘉義市西區垂楊路611號,23.4725353,120.43788,新西里
10407(實價),華廈,嘉義市嘉義市國安三街1~30號,22.5,3房/2廳/2衛,5 /共7層,41.06,7.34,--,--萬,9.3萬,380萬,600台灣嘉義市西區國安三街9號,23.4900374,120.4294401,保福里
10407(實價),透天厝,嘉義市嘉義市啟明路241~270號,38.5,4房/2廳/3衛,1 /共3層,43.23,20.57,--,--萬,34萬,1470萬,600台灣嘉義市東區啟明路245號,23.4832407,120.4632171,王田里
10407(實價),住宅大樓,嘉義市嘉義市小雅路181~210號,22.1,3房/2廳/2衛,11 /共16層,37.1,4.43,--,--萬,6.6萬,246萬,600台灣嘉義市東區小雅路185號,23.4726044,120.4740688,蘭潭里
10407(實價),透天厝,嘉義市嘉義市玉山路956巷15弄91~120號,0.1,4房/3廳/4衛,1 /共3層,53.3,30.96,--,--萬,11.4萬,610萬,600台灣嘉義市西區玉山路104號,23.4726976,120.4290426,磚磘里
10407(實價),透天厝,嘉義市嘉義市玉山路956巷15弄91~120號,0.1,3房/3廳/4衛,1 /共3層,53.3,31.19,--,--萬,12.1萬,645萬,600台灣嘉義市西區玉山路104號,23.4726976,120.4290426,磚磘里
10407(實價),透天厝,嘉義市嘉義市玉山路956巷15弄91~120號,0.1,4房/3廳/4衛,1 /共3層,53.3,31.38,--,--萬,12.3萬,657萬,600台灣嘉義市西區玉山路104號,23.4726976,120.4290426,磚磘里
10407(實價),透天厝,嘉義市嘉義市玉山路956巷15弄91~120號,0.1,3房/3廳/4衛,1 /共3層,51.57,30.92,--,--萬,13萬,672萬,600台灣嘉義市西區玉山路104號,23.4726976,120.4290426,磚磘里
10407(實價),透天厝,嘉義市嘉義市玉山路956巷15弄91~120號,0.1,3房/3廳/4衛,1 /共3層,53.3,30.22,--,--萬,12.4萬,662萬,600台灣嘉義市西區玉山路104號,23.4726976,120.4290426,磚磘里
10407(實價),透天厝,嘉義市嘉義市玉山路956巷15弄91~120號,0.1,2房/3廳/3衛,1 /共3層,53.3,30.25,--,--萬,12.6萬,669萬,600台灣嘉義市西區玉山路104號,23.4726976,120.4290426,磚磘里
10407(實價),透天厝,嘉義市嘉義市玉山路956巷15弄91~120號,0.1,4房/3廳/4衛,1 /共3層,53.3,30.14,--,--萬,11.3萬,600萬,600台灣嘉義市西區玉山路104號,23.4726976,120.4290426,磚磘里
10407(實價),透天厝,嘉義市嘉義市玉山路956巷15弄61~90號,0.1,4房/3廳/4衛,1 /共3層,50.44,30.25,--,--萬,12.8萬,648萬,600台灣嘉義市西區玉山路68號,23.4730612,120.4305863,磚磘里
10407(實價),住宅大樓,嘉義市嘉義市興業東路301~330號,29.2,3房/2廳/2衛,5 /共10層,47.36,7.35,--,--萬,8萬,380萬,600台灣嘉義市東區興業東路330號,23.469965,120.4618098,芳草里
10407(實價),透天厝,嘉義市嘉義市玉山路956巷15弄61~90號,0.1,3房/3廳/4衛,1 /共3層,53.3,30.31,--,--萬,12.2萬,649萬,600台灣嘉義市西區玉山路68號,23.4730612,120.4305863,磚磘里
10407(實價),透天厝,嘉義市嘉義市玉山路956巷15弄61~90號,0.1,3房/3廳/4衛,1 /共3層,53.3,30.34,--,--萬,12.2萬,652萬,600台灣嘉義市西區玉山路68號,23.4730612,120.4305863,磚磘里
10407(實價),透天厝,嘉義市嘉義市玉山路956巷15弄91~120號,0.1,4房/3廳/4衛,1 /共3層,60.48,64.22,--,--萬,13.9萬,838萬,600台灣嘉義市西區玉山路104號,23.4726976,120.4290426,磚磘里
10407(實價),住宅大樓,嘉義市嘉義市彌陀路121~150號,19.3,2房/1廳/1衛,7 /共20層,20.92,1.48,--,--萬,7.6萬,160萬,600台灣嘉義市東區彌陀路121號,23.4666592,120.4667133,芳草里
10407(實價),透天厝,嘉義市嘉義市玉山路956巷15弄61~90號,0.1,3房/3廳/4衛,1 /共3層,55.68,36.13,--,--萬,13.3萬,742萬,600台灣嘉義市西區玉山路68號,23.4730612,120.4305863,磚磘里
10407(實價),透天厝,嘉義市嘉義市玉山路956巷15弄121~150號,0.1,4房/3廳/4衛,1 /共3層,59.42,38.89,--,--萬,12.4萬,735萬,600台灣嘉義市西區玉山路134號,23.4726067,120.4280599,磚磘里
10407(實價),透天厝,嘉義市嘉義市玉山路956巷15弄121~150號,0.1,4房/3廳/4衛,1 /共3層,59.42,40.42,--,--萬,12.3萬,730萬,600台灣嘉義市西區玉山路134號,23.4726067,120.4280599,磚磘里
10407(實價),透天厝,嘉義市嘉義市玉山路956巷15弄121~150號,0.1,3房/3廳/4衛,1 /共4層,66.62,55.51,--,--萬,13.7萬,910萬,600台灣嘉義市西區玉山路134號,23.4726067,120.4280599,磚磘里
10407(實價),透天厝,嘉義市嘉義市玉山路956巷15弄61~90號,0.1,4房/3廳/4衛,1 /共3層,53.3,30.28,--,--萬,12.2萬,652萬,600台灣嘉義市西區玉山路68號,23.4730612,120.4305863,磚磘里
10407(實價),住宅大樓(含車位),嘉義市嘉義市保建街31~60號,22.1,3房/2廳/2衛,10 /共12層,43.59,7.44,--,--萬,8萬,350萬,600台灣嘉義市東區保建街60號,23.5006199,120.4530035,後湖里
10407(實價),住宅大樓,嘉義市嘉義市八德路301~330號,21,3房/2廳/2衛,11 /共12層,36.08,3.42,--,--萬,8萬,290萬,600台灣嘉義市西區八德路330號,23.4912488,120.4302424,保安里
10407(實價),透天厝,嘉義市嘉義市玉山路956巷15弄61~90號,0.1,3房/3廳/4衛,1 /共3層,55.9,31.56,--,--萬,12.8萬,715萬,600台灣嘉義市西區玉山路68號,23.4730612,120.4305863,磚磘里
10407(實價),透天厝,嘉義市嘉義市玉山路956巷15弄61~90號,0.1,3房/3廳/4衛,1 /共3層,50.08,30.68,--,--萬,13.4萬,670萬,600台灣嘉義市西區玉山路68號,23.4730612,120.4305863,磚磘里
10407(實價),透天厝,嘉義市嘉義市玉山路956巷15弄61~90號,0.1,3房/3廳/4衛,1 /共3層,56.19,31.14,--,--萬,11.9萬,668萬,600台灣嘉義市西區玉山路68號,23.4730612,120.4305863,磚磘里
10407(實價),透天厝,嘉義市嘉義市玉山路956巷15弄61~90號,0.1,3房/3廳/4衛,1 /共3層,62.18,33.59,--,--萬,11.2萬,698萬,600台灣嘉義市西區玉山路68號,23.4730612,120.4305863,磚磘里
10407(實價),透天厝,嘉義市嘉義市軍輝路281巷1~30號,0.2,4房/2廳/4衛,1 /共4層,62.06,28.6,--,--萬,14萬,868萬,600台灣嘉義市東區軍輝路91巷1號,23.4560228,120.4618719,興仁里
10407(實價),透天厝,嘉義市嘉義市五福街20巷25弄1~30號,38.3,4房/3廳/4衛,1 /共2層,26.57,18.15,--,--萬,20.8萬,552萬,600台灣嘉義市東區五福街20巷25弄29號,23.4870713,120.4696249,王田里
10407(實價),套房,嘉義市嘉義市文雅街140巷1~30號,19.1,1房/1廳/1衛,8 /共9層,20.45,3.29,--,--萬,9.8萬,200萬,600台灣嘉義市東區文雅街140巷11號,23.4840615,120.4853228,文雅里
10407(實價),華廈,嘉義市嘉義市大同路451~480號,20.9,3房/2廳/2衛,7 /共8層,38.41,5.92,--,--萬,10.5萬,402萬,600台灣嘉義市西區大同路449-453號,23.4761675,120.4231992,港坪里
10407(實價),透天厝,嘉義市嘉義市北社尾路88巷31~60號,33.7,3房/2廳/2衛,1 /共2層,26.46,21.78,--,--萬,11.6萬,308萬,600台灣嘉義市西區北社尾路60號,23.4937241,120.4292108,保安里
10407(實價),透天厝,嘉義市嘉義市玉山路956巷15弄91~120號,0.1,4房/3廳/4衛,1 /共3層,59.42,38.29,--,--萬,11.8萬,700萬,600台灣嘉義市西區玉山路104號,23.4726976,120.4290426,磚磘里
10407(實價),透天厝,嘉義市嘉義市玉山路956巷15弄61~90號,0.1,4房/3廳/4衛,1 /共3層,53.3,30.37,--,--萬,12.2萬,650萬,600台灣嘉義市西區玉山路68號,23.4730612,120.4305863,磚磘里
10407(實價),透天厝,嘉義市嘉義市玉山路956巷15弄91~120號,0.1,3房/3廳/4衛,1 /共3層,53.3,30.1,--,--萬,11.8萬,627萬,600台灣嘉義市西區玉山路104號,23.4726976,120.4290426,磚磘里
10407(實價),透天厝,嘉義市嘉義市育人路160巷61~90號,0.3,4房/3廳/5衛,1 /共3層,60.36,39.39,--,--萬,17.1萬,1030萬,600台灣嘉義市西區育人路160巷25-83號,23.4736601,120.4192517,港坪里
10407(實價),透天厝,嘉義市嘉義市玉山路956巷15弄121~150號,0.1,4房/3廳/4衛,1 /共3層,56.46,39.61,--,--萬,12.4萬,700萬,600台灣嘉義市西區玉山路134號,23.4726067,120.4280599,磚磘里
10407(實價),華廈,嘉義市嘉義市自強街195巷31~60號,19.8,3房/1廳/2衛,4 /共7層,24.9,4.13,--,--萬,9.6萬,239萬,600台灣嘉義市西區自強街195巷27號,23.464458,120.4203273,劉厝里
10407(實價),透天厝,嘉義市嘉義市長榮街31~60號,42,2房/2廳/2衛,1 /共2層,28.68,19.06,--,--萬,13.9萬,400萬,600台灣嘉義市東區長榮街42號,23.4845005,120.4567469,林森里
10407(實價),透天厝,嘉義市嘉義市民生南路510巷31~60號,35.2,4房/2廳/2衛,1 /共2層,36.82,33.28,--,--萬,11.1萬,410萬,600台灣嘉義市西區民生南路510巷31號,23.4594393,120.44263,光路里
10407(實價),透天厝,嘉義市嘉義市興業東路145巷61~90號,39.5,3房/2廳/2衛,1 /共2層,22.16,15.73,--,--萬,17.1萬,380萬,600台灣嘉義市東區興業東路145巷90號,23.4701583,120.4514011,豐年里
10407(實價),透天厝(含車位),嘉義市嘉義市大賢路121~150號,0.2,5房/2廳/4衛,1 /共4層,85.8,40.94,--,--萬,17.2萬,1475萬,600台灣嘉義市西區大賢路150號,23.4626254,120.4142577,劉厝里
10407(實價),住宅大樓,嘉義市嘉義市友愛路481~510號,15.7,3房/2廳/2衛,5 /共12層,37.47,4.31,--,--萬,9.3萬,350萬,600台灣嘉義市西區友愛路510號,23.4886401,120.4349389,保安里
10407(實價),住宅大樓,嘉義市嘉義市彌陀路151~180號,19.3,2房/2廳/2衛,15 /共20層,29.55,2.3,--,--萬,7.8萬,230萬,600台灣嘉義市東區彌陀路180號,23.4724381,120.4638868,短竹里
10407(實價),透天厝,嘉義市嘉義市玉山路956巷15弄31~60號,0.1,4房/3廳/4衛,1 /共3層,51.56,31.22,--,--萬,12.8萬,660萬,600台灣嘉義市西區玉山路46-64號,23.473191,120.4311724,磚磘里
10407(實價),華廈,嘉義市嘉義市民生南路466巷35弄1~30號,20.7,3房/2廳/2衛,6 /共6層,24.58,5.12,--,--萬,9.2萬,226萬,600台灣嘉義市西區民生南路850巷1弄30號,23.4545835,120.4393273,湖內里
10407(實價),透天厝,嘉義市嘉義市中興路726巷31~60號,8.6,4房/2廳/4衛,1 /共4層,59.88,30.99,--,--萬,17.1萬,1025萬,600台灣嘉義市西區中興路21號,23.4803298,120.4392574,後驛里
10407(實價),公寓,嘉義市嘉義市五福街20巷25弄1~30號,38.3,4房/2廳/2衛,1 /共2層,26.42,18.15,--,--萬,7.2萬,190萬,600台灣嘉義市東區五福街20巷25弄29號,23.4870713,120.4696249,王田里
10407(實價),套房,嘉義市嘉義市福州五街1~30號,22.8,1房/1廳/1衛,4 /共7層,12.41,1.85,--,--萬,5.6萬,70萬,600台灣嘉義市西區福州五街24號,23.4619784,120.4355941,福民里
10407(實價),透天厝,嘉義市嘉義市軍輝路124巷1~30號,34.2,4房/2廳/2衛,1 /共2層,34.45,26.62,--,--萬,3.5萬,120萬,600台灣嘉義市東區軍輝路124巷6號,23.4566719,120.4618215,興仁里
10407(實價),住宅大樓(含車位),嘉義市嘉義市世賢路一段631~660號,21,4房/2廳/4衛,10 /共12層,70.99,6.77,--,--萬,7.5萬,530萬,600台灣嘉義市西區世賢路一段630號,23.4931556,120.4301178,保安里
10407(實價),透天厝,嘉義市嘉義市金龍街1~30號,31.3,3房/2廳/2衛,1 /共2層,40.99,0,--,--萬,0.6萬,25萬,600台灣嘉義市東區金龍街56-1號,23.4789545,120.4717126,東川里
10407(實價),住宅大樓(含車位),嘉義市嘉義市新榮路1~30號,10.8,3房/2廳/2衛,14 /共14層,59.17,13.99,--,--萬,8.4萬,500萬,600台灣嘉義市西區新榮路1號,23.4689591,120.4451514,致遠里
10407(實價),公寓,嘉義市嘉義市軍輝路91巷1~30號,22,3房/2廳/2衛,3 /共5層,39.67,18.04,--,--萬,6.3萬,250萬,600台灣嘉義市東區軍輝路91巷1號,23.4560228,120.4618719,興仁里
10407(實價),華廈,嘉義市嘉義市興業東路271~300號,22.2,2房/1廳/1衛,2 /共7層,14.44,2.76,--,--萬,11.1萬,160萬,600台灣嘉義市東區興業東路62號,23.4694597,120.4555993,興南里
10407(實價),住宅大樓,嘉義市嘉義市1~30號,15.7,3房/2廳/2衛,2 /共12層,40.3,4.31,--,--萬,8.9萬,360萬,600台灣嘉義市東區林森東路269巷1弄30號,23.4901012,120.4654374,新店里
10407(實價),華廈,嘉義市嘉義市康樂街91~120號,22,3房/1廳/2衛,3 /共6層,32.04,6.61,--,--萬,9.1萬,290萬,600台灣嘉義市西區康樂街120號,23.4748143,120.4473158,新富里
10407(實價),華廈,嘉義市嘉義市東區興業東路271~300號,29.2,3房/2廳/2衛,4 /共10層,33.67,5.05,--,--萬,8.3萬,280萬,600台灣嘉義市東區興業東路62號,23.4694597,120.4555993,興南里
10407(實價),住宅大樓(含車位),嘉義市嘉義市大同路391~420號,21.1,3房/2廳/2衛,8 /共13層,53.32,6.78,--,--萬,9.8萬,520萬,600台灣嘉義市西區大同路403號,23.4763639,120.4245046,磚瑤里
10407(實價),透天厝,嘉義市嘉義市彌陀路162巷1~30號,38.5,4房/2廳/3衛,1 /共2層,30.09,27.83,--,--萬,21.6萬,650萬,600台灣嘉義市東區彌陀路162巷12號,23.4682564,120.4669059,短竹里
10407(實價),公寓,嘉義市嘉義市上海路121~150號,31.4,3房/2廳/2衛,3 /共5層,26.45,8.88,--,--萬,8.9萬,235萬,600台灣嘉義市西區上海路106-110號,23.4655441,120.4319231,車店里
10407(實價),透天厝,嘉義市嘉義市忠孝路418巷1~30號,46,2房/1廳/1衛,1 /共2層,14.31,11.8,--,--萬,7.5萬,108萬,600台灣嘉義市東區忠孝路522-1號,23.4939767,120.452811,仁義里
10407(實價),住宅大樓,嘉義市嘉義市八德路301~330號,20.7,3房/2廳/2衛,16 /共16層,36.77,4.5,--,--萬,9.8萬,360萬,600台灣嘉義市西區八德路330號,23.4912488,120.4302424,保安里
10407(實價),住宅大樓,嘉義市嘉義市博東路151~180號,17.3,3房/2廳/2衛,1 /共22層,44.63,5.6,--,--萬,11.4萬,510萬,600台灣嘉義市東區博東路80-112號,23.4908563,120.4605339,太平里
10407(實價),套房,嘉義市嘉義市文雅街140巷1~30號,19.1,1房/1廳/1衛,5 /共9層,11.91,1.81,--,--萬,9.7萬,116萬,600台灣嘉義市東區文雅街140巷11號,23.4840615,120.4853228,文雅里
10407(實價),透天厝(含車位),嘉義市嘉義市大賢路121~150號,0.2,5房/2廳/4衛,1 /共4層,86.9,40.9,--,--萬,17.5萬,1520萬,600台灣嘉義市西區大賢路150號,23.4626254,120.4142577,劉厝里
10407(實價),透天厝,嘉義市嘉義市新民路416巷40弄1~30號,31.5,3房/2廳/3衛,1 /共2層,14.73,11.95,--,--萬,10.2萬,150萬,600台灣嘉義市西區新民路416巷40弄25號,23.4589851,120.440647,光路里
10407(實價),透天厝,嘉義市嘉義市大業街211~240號,26.4,4房/2廳/3衛,1 /共2層,42.78,25.41,--,--萬,14.3萬,610萬,600台灣嘉義市東區大業街240號,23.4604797,120.4521189,興安里
10407(實價),透天厝,嘉義市嘉義市保仁三街1~30號,0.6,4房/3廳/4衛,1 /共4層,59.61,26.32,--,--萬,15.6萬,930萬,600台灣嘉義市東區保仁三街1號,23.503521,120.4533602,後湖里
10407(實價),華廈,嘉義市嘉義市友愛路149巷1~30號,22.4,2房/2廳/2衛,4 /共7層,35.89,5.9,--,--萬,7.9萬,283萬,600台灣嘉義市西區友愛路30號,23.4921539,120.4441036,湖邊里
10407(實價),公寓,嘉義市嘉義市西榮街1~30號,26.1,3房/2廳/1衛,5 /共5層,39.41,11.99,--,--萬,5.1萬,200萬,600台灣嘉義市西區西榮街2號,23.472681,120.4458879,導明里
10407(實價),透天厝,嘉義市嘉義市新民路186巷61~90號,0.3,3房/2廳/3衛,1 /共3層,62.52,28.74,--,--萬,13萬,810萬,600台灣嘉義市西區新民路186巷56號,23.4547798,120.4371726,湖內里
10407(實價),套房,嘉義市嘉義市小雅路331~360號,22.1,1房/1廳/1衛,8 /共12層,8.32,1.06,--,--萬,6.4萬,53萬,600台灣嘉義市東區小雅路250號,23.4745693,120.4736369,蘭潭里
10407(實價),套房,嘉義市嘉義市小雅路331~360號,22.1,1房/1廳/1衛,9 /共12層,8.15,1.06,--,--萬,6.4萬,52萬,600台灣嘉義市東區小雅路250號,23.4745693,120.4736369,蘭潭里
10407(實價),套房,嘉義市嘉義市小雅路331~360號,22.1,1房/1廳/1衛,11 /共12層,8.4,1.06,--,--萬,6.2萬,52萬,600台灣嘉義市東區小雅路250號,23.4745693,120.4736369,蘭潭里
10407(實價),住宅大樓,嘉義市嘉義市興村街61~90號,24.1,2房/1廳/1衛,11 /共15層,24.09,2.84,--,--萬,9.5萬,230萬,600台灣嘉義市東區興村街47號,23.4551162,120.4576823,興村里
10407(實價),透天厝,嘉義市嘉義市玉山路800巷2弄1~30號,37.7,3房/2廳/1衛,1 /共1層,18.91,40.69,--,--萬,16.3萬,308萬,600台灣嘉義市西區玉山路1號,23.473261,120.4319371,磚瑤里
10407(實價),住宅大樓,嘉義市嘉義市仁愛路331~360號,19.5,1房/1廳/1衛,14 /共14層,11.75,1.19,--,--萬,8.9萬,105萬,600台灣嘉義市西區仁愛路398-410號,23.4736556,120.4424013,新富里
10407(實價),住宅大樓,嘉義市嘉義市國揚三街1~30號,20.5,4房/2廳/2衛,9 /共12層,52.59,0,--,--萬,4萬,210萬,600台灣嘉義市西區四維路368號,23.4875152,120.4278406,保福里
10407(實價),透天厝,嘉義市嘉義市民生南路608巷61~90號,36.3,3房/2廳/1衛,1 /共2層,31.84,25.41,--,--萬,11.6萬,370萬,600台灣嘉義市西區民生南路608巷47號,23.456943,120.4403794,獅子里
10407(實價),住宅大樓,嘉義市嘉義市永福一街1~30號,20.6,3房/1廳/2衛,11 /共13層,36.53,4.34,--,--萬,8.8萬,320萬,600台灣嘉義市西區永福一街22號,23.4726134,120.4252421,磚磘里
10407(實價),住宅大樓,嘉義市嘉義市福州七街61~90號,21.8,3房/2廳/2衛,6 /共12層,38.21,4.34,--,--萬,6.5萬,250萬,600台灣嘉義市西區福州七街61號,23.462024,120.432825,福民里
10407(實價),透天厝,嘉義市嘉義市保建街31~60號,4.7,7房/3廳/5衛,1 /共4層,117.03,44.08,--,--萬,18.7萬,2188萬,600台灣嘉義市東區保建街60號,23.5006199,120.4530035,後湖里
10407(實價),華廈(含車位),嘉義市嘉義市大同路451~480號,20.9,3房/2廳/2衛,5 /共8層,51.01,7.33,--,--萬,8.2萬,420萬,600台灣嘉義市西區大同路449-453號,23.4761675,120.4231992,港坪里
10407(實價),華廈,嘉義市嘉義市小雅路513巷1~30號,23.6,3房/1廳/1衛,4 /共7層,32.7,6.15,--,--萬,8.9萬,292萬,600台灣嘉義市東區小雅路513巷24號,23.4763545,120.4685768,蘭潭里
10407(實價),透天厝,嘉義市嘉義市南京路331~360號,21.5,21房/2廳/21衛,1 /共5層,110.84,33.28,--,--萬,19.7萬,2180萬,600台灣嘉義市西區南京路338-340號,23.4627101,120.4363988,光路里
10407(實價),透天厝,嘉義市嘉義市大聖南街1~30號,0.3,4房/2廳/5衛,1 /共4層,102.38,58.64,--,--萬,17.6萬,1800萬,600台灣嘉義市西區大聖南街66號,23.4610658,120.4198577,劉厝里
10407(實價),套房,嘉義市嘉義市文雅街116巷1~30號,19.1,1房/1廳/1衛,3 /共9層,13.47,2.14,--,--萬,7.6萬,103萬,600台灣嘉義市東區文雅街140巷11號,23.4840615,120.4853228,文雅里
10407(實價),透天厝,嘉義市嘉義市維新路160巷1~30號,40.8,4房/2廳/2衛,1 /共2層,27.1,23.6,--,--萬,12.7萬,345萬,600台灣嘉義市東區維新路160巷30號,23.489407,120.458011,太平里
10407(實價),透天厝,嘉義市嘉義市大業街1~30號,27.2,4房/1廳/3衛,1 /共3層,31.21,15.73,--,--萬,21.8萬,680萬,600台灣嘉義市東區大業街2號,23.4635802,120.4551359,安業里
10407(實價),透天厝,嘉義市嘉義市軍輝路281巷31~60號,0.2,4房/2廳/4衛,1 /共4層,62.02,30.42,--,--萬,13.7萬,850萬,600台灣嘉義市東區軍輝路60號,23.456132,120.4637739,興仁里
10407(實價),住宅大樓,嘉義市嘉義市興雅路61~90號,20.7,3房/2廳/2衛,7 /共12層,31.49,2.36,--,--萬,7.9萬,250萬,600台灣嘉義市西區興雅路90號,23.4830055,120.4327422,竹圍里
10407(實價),透天厝,嘉義市嘉義市林森東路163巷1~30號,40.2,3房/2廳/2衛,1 /共2層,31.51,25.71,--,--萬,11.3萬,355萬,600台灣嘉義市東區林森東路269巷1弄30號,23.4901012,120.4654374,新店里
10407(實價),透天厝,嘉義市嘉義市保義路121~150號,33.6,6房/2廳/4衛,1 /共3層,32.04,17.75,--,--萬,3.3萬,105萬,600台灣嘉義市東區保義路146號,23.5028988,120.4531787,後湖里
10407(實價),套房,嘉義市嘉義市廣州街211~240號,21.3,1房/1廳/1衛,5 /共7層,11.71,2.06,--,--萬,7.5萬,88萬,600台灣嘉義市西區廣州街211號,23.4640077,120.431415,福民里
10407(實價),透天厝,嘉義市嘉義市新龍街31~60號,0.2,4房/3廳/3衛,1 /共3層,59.91,28.74,--,--萬,19.2萬,1150萬,600台灣嘉義市西區新龍街42號,23.4900078,120.4418802,新厝里
10407(實價),華廈,嘉義市嘉義市永福三街1~30號,22.7,3房/2廳/2衛,4 /共7層,38.41,6.48,--,--萬,9.8萬,375萬,600台灣嘉義市西區永福三街30號,23.4736996,120.4249398,磚磘里
10407(實價),透天厝,嘉義市嘉義市新龍街31~60號,0.2,4房/3廳/3衛,1 /共3層,62.38,30.86,--,--萬,18.4萬,1150萬,600台灣嘉義市西區新龍街42號,23.4900078,120.4418802,新厝里
10407(實價),住宅大樓,嘉義市嘉義市世賢路一段601~630號,21,3房/2廳/3衛,1 /共12層,49.96,5.07,--,--萬,19.6萬,980萬,600台灣嘉義市西區世賢路一段601號,23.4921739,120.4303935,保安里
10407(實價),透天厝,嘉義市嘉義市興業東路62巷31~60號,50.8,3房/2廳/2衛,1 /共2層,23.03,38.12,--,--萬,23.2萬,533萬,600台灣嘉義市東區興業東路62巷31號,23.468806,120.455445,安業里
10407(實價),華廈,嘉義市嘉義市垂楊路61~90號,22,3房/2廳/2衛,5 /共7層,35.67,6.38,--,--萬,8.4萬,300萬,600台灣嘉義市東區垂楊路59-79號,23.4745487,120.4587651,新開里
10407(實價),透天厝,嘉義市嘉義市南興路271~300號,0.9,4房/2廳/5衛,1 /共3層,67.95,31.76,--,--萬,25萬,1700萬,600台灣嘉義市東區南興路271號,23.4661731,120.4557542,頂寮里
10407(實價),住宅大樓,嘉義市嘉義市志昇街91~120號,10.7,3房/2廳/2衛,4 /共14層,61.96,14.71,--,--萬,8.6萬,535萬,600台灣嘉義市西區志昇街79號,23.4691128,120.4430855,翠岱里
10407(實價),住宅大樓(含車位),嘉義市嘉義市興業西路121~150號,10.7,3房/3廳/3衛,6 /共14層,56.58,8.95,--,--萬,10.3萬,581萬,600台灣嘉義市西區興業西路121號,23.4682309,120.4437735,美源里
10407(實價),住宅大樓,嘉義市嘉義市博東路151~180號,17.3,4房/2廳/2衛,15 /共22層,43.55,5.35,--,--萬,8.7萬,380萬,600台灣嘉義市東區博東路80-112號,23.4908563,120.4605339,太平里
10407(實價),住宅大樓,嘉義市嘉義市小雅路151~180號,22.1,7房/0廳/7衛,1 /共16層,70.81,8.46,--,--萬,5.7萬,402萬,600台灣嘉義市東區小雅路161號,23.4722249,120.4744299,蘭潭里
10407(實價),透天厝,嘉義市嘉義市圓福街121~150號,42.6,2房/2廳/2衛,1 /共2層,25.28,22.08,--,--萬,22.1萬,560萬,600台灣嘉義市東區圓福街121-127號,23.4886399,120.4646111,王田里
10407(實價),透天厝,嘉義市嘉義市永吉三街46巷3弄1~30號,41.5,2房/1廳/1衛,1 /共2層,19.7,19.06,--,--萬,9.6萬,190萬,600台灣嘉義市西區永吉三街46巷1弄,23.4928596,120.4368925,保生里
10407(實價),華廈,嘉義市嘉義市友孝路151~180號,21.2,2房/1廳/1衛,5 /共9層,24.06,2.69,--,--萬,9.8萬,235萬,600台灣嘉義市西區友孝路180號,23.484917,120.4354928,竹圍里
10407(實價),透天厝,嘉義市嘉義市嘉義市東區芳安里335巷1~30號,35.5,4房/2廳/1衛,1 /共4層,38.48,19.97,--,--萬,9.9萬,380萬,600台灣嘉義市東區芳安路1號,23.4688333,120.4654,芳草里
10407(實價),透天厝,嘉義市嘉義市自強街195巷1~30號,24.5,5房/2廳/2衛,1 /共4層,99.84,28.5,--,--萬,7.6萬,760萬,600台灣嘉義市西區自強街195巷32-1號,23.4643382,120.4201285,劉厝里
10407(實價),華廈,嘉義市嘉義市共和路61~90號,34.3,1房/1廳/1衛,9 /共9層,6.32,1.16,--,--萬,4.7萬,30萬,600台灣嘉義市東區共和路186-206號,23.4792446,120.4555668,民族里
10407(實價),華廈,嘉義市嘉義市彌陀路238巷59弄1~30號,25.4,4房/1廳/2衛,3 /共7層,43.49,8.9,--,--萬,2.2萬,94萬,600台灣嘉義市東區彌陀路238巷7弄5號,23.4740199,120.4632164,短竹里
10407(實價),住宅大樓,嘉義市嘉義市玉山路240巷1~30號,21,3房/1廳/2衛,12 /共12層,32.41,3.03,--,--萬,5.9萬,190萬,600台灣嘉義市西區玉山路1號,23.473261,120.4319371,磚瑤里
10406(實價),店面(店鋪),嘉義市嘉義市仁愛路541~570號,17.8,0房/0廳/0衛,2 /共8層,2243.69,370.56,--,--萬,14.3萬,32000萬,600台灣嘉義市西區仁愛路582號,23.4787422,120.4419365,書院里
10407(實價),公寓,嘉義市嘉義市大業街61~90號,33.8,3房/1廳/2衛,2 /共5層,28.78,8.47,--,--萬,6.4萬,185萬,600台灣嘉義市東區大業街49-69號,23.4627781,120.4538574,安業里
10407(實價),透天厝,嘉義市嘉義市東區大雅路一段368巷66弄1~30號,19.7,5房/3廳/3衛,1 /共4層,72.17,30.34,--,--萬,11.8萬,850萬,600台灣嘉義市東區大雅路一段1號,23.479947,120.503839,盧厝里
10407(實價),透天厝,嘉義市嘉義市民生南路510巷61~90號,34.6,3房/2廳/3衛,1 /共2層,32,24.5,--,--萬,10.6萬,340萬,600台灣嘉義市西區民生南路510巷61號,23.4591326,120.4420308,光路里
10407(實價),套房,嘉義市嘉義市溫州二街91~120號,23.7,1房/1廳/1衛,2 /共6層,12.48,2.41,--,--萬,6.3萬,78萬,600台灣嘉義市西區溫州二街106號,23.4643282,120.4368017,福民里
10407(實價),套房,嘉義市嘉義市溫州二街91~120號,23.7,1房/1廳/1衛,3 /共6層,14.62,2.8,--,--萬,5.3萬,78萬,600台灣嘉義市西區溫州二街106號,23.4643282,120.4368017,福民里
10406(實價),華廈,嘉義市嘉義市小雅路513巷1~30號,22,3房/2廳/2衛,1 /共6層,43.95,7.87,--,--萬,9.5萬,417萬,600台灣嘉義市東區小雅路513巷24號,23.4763545,120.4685768,蘭潭里
10407(實價),住宅大樓,嘉義市嘉義市博愛路一段481~510號,20.6,2房/1廳/1衛,7 /共12層,25.58,3.71,--,--萬,11.3萬,288萬,600台灣嘉義市西區博愛路一段510號,23.484968,120.4421667,重興里
10406(實價),透天厝,嘉義市嘉義市軍輝路281巷1~30號,0.1,4房/2廳/4衛,1 /共4層,60.9,27.39,--,--萬,14萬,850萬,600台灣嘉義市東區軍輝路91巷1號,23.4560228,120.4618719,興仁里
10406(實價),透天厝,嘉義市嘉義市大聖南街1~30號,0.2,4房/2廳/5衛,1 /共4層,101.07,57.14,--,--萬,18.1萬,1830萬,600台灣嘉義市西區大聖南街66號,23.4610658,120.4198577,劉厝里
10406(實價),透天厝,嘉義市嘉義市西榮街151~180號,53.7,0房/0廳/0衛,1 /共3層,66.25,36,--,--萬,13.2萬,876萬,600台灣嘉義市西區西榮街180號,23.4781491,120.4453078,西榮里
10406(實價),透天厝,嘉義市嘉義市臺斗街241~270號,33.5,4房/2廳/3衛,1 /共2層,34.98,29.65,--,--萬,10萬,350萬,600台灣嘉義市東區台斗街241號,23.4962905,120.4508653,中庄里
10406(實價),透天厝,嘉義市嘉義市玉山路31~60號,83.3,0房/0廳/0衛,1 /共2層,174.47,854.56,--,--萬,58.8萬,10254萬,600台灣嘉義市西區玉山路46-64號,23.473191,120.4311724,磚磘里
10406(實價),透天厝,嘉義市嘉義市保義路181~210號,31.4,6房/2廳/3衛,1 /共3層,73.68,28.23,--,--萬,4.9萬,360萬,600台灣嘉義市東區保義路206號,23.5039404,120.4530332,後湖里
10406(實價),店面(店鋪),嘉義市嘉義市中山路451~480號,56.9,2房/2廳/2衛,2 /共3層,34.41,23.9,--,--萬,72.6萬,2500萬,600台灣嘉義市西區中山路453號,23.4795251,120.4460401,番社里
10406(實價),套房,嘉義市嘉義市民生南路271~300號,26.3,1房/1廳/1衛,7 /共7層,21.04,3.96,--,--萬,6.4萬,135萬,600台灣嘉義市西區民生南路263號,23.4642732,120.4451217,美源里
10406(實價),透天厝,嘉義市嘉義市芳安路17巷91~120號,38,4房/1廳/2衛,1 /共2層,22.85,23.6,--,--萬,9.6萬,220萬,600台灣嘉義市東區芳安路17巷91號,23.4681381,120.4649724,芳草里
10406(實價),透天厝,嘉義市嘉義市大聖二街1~30號,0.2,4房/2廳/5衛,1 /共4層,65.9,33.55,--,--萬,21.9萬,1440萬,600台灣嘉義市西區大聖二街12號,23.4626339,120.4209624,劉厝里
10406(實價),住宅大樓,嘉義市嘉義市小雅路151~180號,22,7房/1廳/7衛,1 /共16層,70.81,8.46,--,--萬,5.8萬,410萬,600台灣嘉義市東區小雅路161號,23.4722249,120.4744299,蘭潭里
10406(實價),華廈,嘉義市嘉義市杭州四街61~90號,26.4,3房/2廳/2衛,6 /共7層,37.82,8.4,--,--萬,7.3萬,276萬,600台灣嘉義市西區杭州四街42號,23.4672318,120.4450469,美源里
10406(實價),華廈,嘉義市嘉義市福州五街1~30號,22.8,1房/0廳/1衛,4 /共7層,12.32,1.61,--,--萬,6.6萬,81萬,600台灣嘉義市西區福州五街24號,23.4619784,120.4355941,福民里
10406(實價),透天厝,嘉義市嘉義市東義路109巷1~30號,0.7,4房/3廳/5衛,1 /共3層,60.9,33.28,--,--萬,14.8萬,899萬,600台灣嘉義市東區東義路109巷1號,23.4950314,120.4688871,後庄里
10406(實價),華廈,嘉義市嘉義市建成街181~210號,24.7,1房/1廳/1衛,4 /共7層,11.38,2.46,--,--萬,8.8萬,100萬,600台灣嘉義市西區建成街195號,23.4687551,120.4375142,車店里
10406(實價),透天厝,嘉義市嘉義市忠孝北街33巷8弄1~30號,2.7,4房/2廳/4衛,1 /共3層,52.7,28.74,--,--萬,13.7萬,722萬,600台灣嘉義市東區忠孝北街112號,23.5166068,120.4467847,荖藤里
10406(實價),透天厝,嘉義市嘉義市保安一路361~390號,31.2,4房/2廳/3衛,1 /共2層,33.98,26.92,--,--萬,17萬,578萬,600台灣嘉義市西區保安一路361號,23.4912002,120.4319529,保安里
10406(實價),套房,嘉義市嘉義市新民路707巷1~30號,18.1,1房/0廳/1衛,4 /共7層,9.86,1.98,--,--萬,7.5萬,74萬,600台灣嘉義市西區新民路707巷2號,23.4690412,120.4395523,垂楊里
10406(實價),透天厝,嘉義市嘉義市彌陀路192巷26弄1~30號,36.8,3房/2廳/2衛,1 /共2層,27.61,19.06,--,--萬,17.7萬,490萬,600台灣嘉義市東區彌陀路311-1號,23.4718888,120.463598,芳草里
10406(實價),華廈,嘉義市嘉義市錦州一街31~60號,24.1,1房/1廳/1衛,5 /共6層,10.75,1.71,--,--萬,9.8萬,105萬,600台灣嘉義市西區錦州一街37號,23.4649233,120.4354031,福民里
10406(實價),住宅大樓,嘉義市嘉義市圓福街118巷2弄121~150號,22.1,3房/2廳/2衛,2 /共15層,38.47,6.56,--,--萬,8.3萬,320萬,600台灣嘉義市東區圓福街118巷2弄108號,23.488141,120.467014,王田里
10406(實價),華廈,嘉義市嘉義市自強街195巷31~60號,24.6,2房/1廳/1衛,2 /共8層,21.07,3,--,--萬,8.5萬,180萬,600台灣嘉義市西區自強街195巷27號,23.464458,120.4203273,劉厝里
10406(實價),透天厝,嘉義市嘉義市忠孝路211~240號,18.1,4房/2廳/2衛,1 /共3層,28.8,16.03,--,--萬,27.8萬,800萬,600台灣嘉義市東區忠孝路106號,23.4913384,120.4531722,
10406(實價),透天厝,嘉義市嘉義市義教街750巷1~30號,40.8,2房/1廳/2衛,1 /共2層,27.19,22.08,--,--萬,12.5萬,340萬,600台灣嘉義市東區義教街30號,23.4934882,120.4678217,新店里
10406(實價),住宅大樓,嘉義市嘉義市蘭井街331~360號,19.6,3房/2廳/2衛,11 /共16層,36.38,4.5,--,--萬,10.6萬,386萬,600台灣嘉義市西區蘭井街260號,23.4771987,120.4459214,西榮里
10406(實價),住宅大樓,嘉義市嘉義市德明路61~90號,19.8,3房/2廳/2衛,13 /共19層,47.37,4.15,--,--萬,10.1萬,477萬,600台灣嘉義市西區德明路90號,23.4814836,120.4320387,福全里
10406(實價),透天厝,嘉義市嘉義市重慶二街148巷31~60號,21.3,6房/3廳/3衛,1 /共4層,56.88,24.77,--,--萬,8.3萬,472萬,600台灣嘉義市西區重慶二街212巷2-36號,23.4597532,120.4303715,紅瓦里
10406(實價),透天厝,嘉義市嘉義市北鎮街91~120號,29.5,4房/2廳/3衛,1 /共3層,58.2,26.32,--,--萬,12萬,700萬,600台灣嘉義市西區北鎮街106-108號,23.4867302,120.4317054,竹圍里
10406(實價),透天厝,嘉義市嘉義市友忠路750巷1~30號,0.8,5房/2廳/4衛,1 /共4層,73.46,43.26,--,--萬,14萬,1030萬,600台灣嘉義市西區友忠路827巷2弄30號,23.4873699,120.4416715,重興里
10406(實價),住宅大樓,嘉義市嘉義市德安路1~30號,20.9,3房/3廳/2衛,1 /共14層,56.47,5.23,--,--萬,10.6萬,600萬,600台灣嘉義市西區德安路3號,23.4841059,120.4334466,竹圍里
10406(實價),住宅大樓,嘉義市嘉義市德明路61~90號,19.8,3房/2廳/2衛,4 /共18層,25.08,1.88,--,--萬,11.2萬,280萬,600台灣嘉義市西區德明路90號,23.4814836,120.4320387,福全里
10406(實價),透天厝,嘉義市嘉義市民生南路403巷1~30號,45.4,3房/2廳/1衛,1 /共2層,21.9,19.06,--,--萬,9.1萬,200萬,600台灣嘉義市西區民生南路850巷1弄30號,23.4545835,120.4393273,湖內里
10406(實價),住宅大樓,嘉義市嘉義市泰山一街31~60號,20.5,3房/2廳/2衛,13 /共14層,34.12,4.14,--,--萬,10.5萬,358萬,600台灣嘉義市西區泰山一街60號,23.4852749,120.425294,福安里
10406(實價),住宅大樓(含車位),嘉義市嘉義市貴州街31~60號,22.9,3房/2廳/3衛,3 /共14層,65.46,8.47,--,--萬,7.1萬,466萬,600台灣嘉義市西區貴州街37號,23.466929,120.4345575,車店里
10406(實價),店面(店鋪),嘉義市嘉義市林森西路271~300號,65.9,1房/2廳/1衛,1 /共2層,41.16,21.48,--,--萬,31.1萬,1280萬,600台灣嘉義市西區林森西路265-269號,23.4810492,120.4439401,番社里
10406(實價),透天厝,嘉義市嘉義市民權路61~90號,42.8,3房/2廳/2衛,1 /共2層,25.27,16.94,--,--萬,7.9萬,200萬,600台灣嘉義市東區民權路90號,23.483832,120.4594724,中山里
10406(實價),店面(店鋪),嘉義市嘉義市保安二路31~60號,2.8,5房/2廳/5衛,1 /共4層,59.28,28.93,--,--萬,22.9萬,1358萬,600台灣嘉義市西區保安二路31號,23.4895565,120.4387143,新厝里
10406(實價),透天厝,嘉義市嘉義市北社尾路271~300號,11.4,5房/2廳/2衛,1 /共3層,48.55,25.18,--,--萬,15.9萬,770萬,600台灣嘉義市西區北社尾路270-282號,23.4937696,120.4229185,北湖里
10406(實價),店面(店鋪),嘉義市嘉義市林森西路301~330號,67.4,0房/1廳/1衛,1 /共1層,8.1,26.32,--,--萬,162.3萬,1315萬,600台灣嘉義市西區林森西路298號,23.4832427,120.4457109,國華里
10406(實價),透天厝,嘉義市嘉義市友孝路229巷1~30號,55.7,0房/0廳/0衛,1 /共1層,8.86,11.19,--,--萬,9.1萬,80萬,600台灣嘉義市西區友孝路8-10號,23.4799985,120.4354399,福全里
10406(實價),住宅大樓,嘉義市嘉義市博東路151~180號,17.3,3房/2廳/2衛,9 /共22層,44.92,4.38,--,--萬,7.8萬,350萬,600台灣嘉義市東區博東路80-112號,23.4908563,120.4605339,太平里
10406(實價),透天厝,嘉義市嘉義市安東二街31~60號,12.2,4房/3廳/3衛,1 /共3層,50.01,24.81,--,--萬,15.6萬,780萬,600台灣嘉義市西區安東二街15號,23.493229,120.433024,保生里
10406(實價),華廈(含車位),嘉義市嘉義市藝術新?1~30號,23.7,3房/1廳/2衛,9 /共10層,41.52,6.93,--,--萬,9.6萬,400萬,600台灣嘉義市西區竹文街73號,23.4818034,120.4413745,後驛里
10406(實價),透天厝,嘉義市嘉義市義教街765巷1~30號,43.6,1房/1廳/1衛,1 /共1層,13.09,16.34,--,--萬,15.6萬,204萬,600台灣嘉義市東區義教街30號,23.4934882,120.4678217,新店里
10406(實價),住宅大樓,嘉義市嘉義市西區獅子里南京路1~30號,21.9,3房/2廳/2衛,9 /共12層,30.18,4.38,--,--萬,9.3萬,280萬,600台灣嘉義市西區南京路30號,23.4562023,120.4426332,獅子里
10406(實價),店面(店鋪),嘉義市嘉義市新榮路331~360號,53.1,0房/0廳/0衛,1 /共4層,98.87,33.58,--,--萬,20.7萬,2050萬,600台灣嘉義市西區中山路450號,23.479434,120.4441417,番社里
10406(實價),華廈,嘉義市嘉義市嘉南街1~30號,23,2房/1廳/1衛,4 /共7層,29.09,5.51,--,--萬,9.7萬,282萬,600台灣嘉義市東區嘉南街39號,23.4925875,120.4553169,仁義里
10406(實價),透天厝,嘉義市嘉義市仁義里7鄰嘉北街91~120號,35.8,0房/0廳/3衛,1 /共3層,65.13,26.32,--,--萬,13.2萬,860萬,600台灣嘉義市東區嘉北街66巷5號,23.493988,120.454477,頂庄里
10406(實價),住宅大樓,嘉義市嘉義市林森東路721~750號,12.3,3房/2廳/2衛,13 /共13層,60.55,14.95,--,--萬,8.8萬,530萬,600台灣嘉義市東區林森東路750號,23.4923366,120.4778693,圳頭里
10406(實價),透天厝,嘉義市嘉義市育英里5鄰國華街1~30號,40.9,3房/2廳/2衛,1 /共2層,32.78,26.92,--,--萬,42.6萬,1398萬,600台灣嘉義市西區國華街21號,23.4707323,120.449369,育英里
10406(實價),住宅大樓,嘉義市嘉義市永福一街1~30號,20.5,3房/2廳/2衛,3 /共13層,48.61,5.76,--,--萬,7.6萬,370萬,600台灣嘉義市西區永福一街22號,23.4726134,120.4252421,磚磘里
10406(實價),住宅大樓,嘉義市嘉義市大同路391~420號,21,4房/2廳/2衛,5 /共13層,45.6,5.61,--,--萬,9.6萬,438萬,600台灣嘉義市西區大同路403號,23.4763639,120.4245046,磚瑤里
10406(實價),住宅大樓,嘉義市嘉義市彌陀路121~150號,19.3,3房/2廳/2衛,20 /共20層,39.08,2.96,--,--萬,8萬,312萬,600台灣嘉義市東區彌陀路121號,23.4666592,120.4667133,芳草里
10406(實價),透天厝,嘉義市嘉義市日新街218巷31~60號,1.6,5房/2廳/4衛,1 /共4層,86.94,59.34,--,--萬,22.4萬,1950萬,600台灣嘉義市東區日新街31號,23.4674925,120.4687269,短竹里
10406(實價),透天厝,嘉義市嘉義市忠孝北街31~60號,12,4房/2廳/3衛,1 /共3層,46.11,27.92,--,--萬,13萬,600萬,600台灣嘉義市東區忠孝北街112號,23.5166068,120.4467847,荖藤里
10406(實價),住宅大樓(含車位),嘉義市嘉義市和平路241~270號,21.7,3房/2廳/2衛,6 /共14層,38.87,4.36,--,--萬,10.8萬,420萬,600台灣嘉義市東區和平路241號,23.4785789,120.4572115,華南里
10406(實價),透天厝,嘉義市嘉義市義教西路61~90號,26.3,3房/2廳/2衛,1 /共2層,43.59,22.39,--,--萬,14.5萬,630萬,600台灣嘉義市東區義教西路90號,23.4943199,120.4667646,新店里
10406(實價),套房,嘉義市嘉義市徐州三街1~30號,22.4,1房/1廳/1衛,5 /共6層,15.59,3.14,--,--萬,8萬,125萬,600台灣嘉義市西區徐州三街30號,23.4668104,120.4384505,福民里
10406(實價),住宅大樓(含車位),嘉義市嘉義市吳鳳南路365巷76弄1~30號,21.6,3房/2廳/2衛,4 /共13層,47.35,7.69,--,--萬,9.7萬,460萬,600台灣嘉義市東區吳鳳南路365巷76弄5號,23.4643739,120.4572401,安寮里
10406(實價),透天厝,嘉義市嘉義市芳安路17巷1~30號,18.6,9房/1廳/9衛,1 /共4層,42.76,19.97,--,--萬,14萬,600萬,600台灣嘉義市東區芳安路17巷30號,23.4681895,120.4647921,芳草里
10406(實價),華廈,嘉義市嘉義市興村街61~90號,24,1房/1廳/1衛,10 /共15層,24.04,2.84,--,--萬,5.8萬,140萬,600台灣嘉義市東區興村街47號,23.4551162,120.4576823,興村里
10406(實價),華廈,嘉義市嘉義市民族路601~630號,22.7,1房/2廳/1衛,8 /共10層,21.61,2.64,--,--萬,3.7萬,80萬,600台灣嘉義市西區民族路630號,23.4756659,120.445173,西榮里
10406(實價),住宅大樓,嘉義市嘉義市國揚三街1~30號,20.4,3房/2廳/2衛,12 /共12層,52.59,0,--,--萬,7.2萬,380萬,600台灣嘉義市西區四維路368號,23.4875152,120.4278406,保福里
10406(實價),透天厝,嘉義市嘉義市彌陀路70巷1~30號,34.3,8房/4廳/6衛,1 /共2層,52.92,37.81,--,--萬,41.6萬,2200萬,600台灣嘉義市東區彌陀路70巷11號,23.4665504,120.4680985,短竹里
10406(實價),住宅大樓(含車位),嘉義市嘉義市吳鳳南路365巷76弄地下層31~60號,21.6,3房/2廳/2衛,-1 /共13層,14.77,7.69,--,--萬,31.2萬,460萬,600台灣嘉義市東區吳鳳南路60號,23.4702041,120.4541124,豐年里
10406(實價),透天厝,嘉義市嘉義市興達路631~660號,8.5,3房/3廳/3衛,1 /共4層,61.56,25.71,--,--萬,20.3萬,1250萬,600台灣嘉義市西區興達路664-686號,23.4848027,120.4270267,福安里
10406(實價),住宅大樓(含車位),嘉義市嘉義市金龍街61~90號,20.1,3房/2廳/2衛,10 /共15層,44.78,5.41,--,--萬,9.6萬,430萬,600台灣嘉義市東區金龍街170-190號,23.4791749,120.4697493,東川里
10406(實價),透天厝,嘉義市嘉義市北鎮街25巷1~30號,25,3房/2廳/2衛,1 /共3層,36.16,21.48,--,--萬,16.7萬,605萬,600台灣嘉義市西區北鎮街25巷28-32號,23.4880312,120.4322511,竹圍里
10406(實價),透天厝,嘉義市嘉義市大業街182巷1~30號,0.2,4房/2廳/3衛,1 /共3層,48.47,26.02,--,--萬,16萬,775萬,600台灣嘉義市東區大業街182巷1號,23.4613895,120.4519324,興安里
10406(實價),套房,嘉義市嘉義市垂楊路841~870號,23.6,1房/1廳/1衛,7 /共12層,9.41,1.05,--,--萬,8.5萬,80萬,600台灣嘉義市西區垂楊路860號,23.4728286,120.4380429,永和里
10406(實價),住宅大樓(含車位),嘉義市嘉義市德福街1~30號,20.6,3房/2廳/2衛,10 /共11層,39.65,6.03,--,--萬,9萬,356萬,600台灣嘉義市西區德福街8-10號,23.4813959,120.4315758,福全里
10406(實價),透天厝,嘉義市嘉義市軍輝路281巷1~30號,0.1,4房/2廳/4衛,1 /共4層,60.9,27.39,--,--萬,13.6萬,828萬,600台灣嘉義市東區軍輝路91巷1號,23.4560228,120.4618719,興仁里
10406(實價),透天厝,嘉義市嘉義市軍輝路281巷31~60號,0.1,4房/2廳/4衛,1 /共4層,60.9,27.39,--,--萬,13.5萬,820萬,600台灣嘉義市東區軍輝路60號,23.456132,120.4637739,興仁里
10406(實價),透天厝,嘉義市嘉義市軍輝路281巷1~30號,0.1,4房/2廳/4衛,1 /共4層,62.13,28.6,--,--萬,13.5萬,838萬,600台灣嘉義市東區軍輝路91巷1號,23.4560228,120.4618719,興仁里
10406(實價),公寓,嘉義市嘉義市西榮街1~30號,30.8,3房/2廳/2衛,4 /共5層,29.88,9.3,--,--萬,6萬,180萬,600台灣嘉義市西區西榮街2號,23.472681,120.4458879,導明里
10406(實價),透天厝,嘉義市嘉義市軍輝路281巷31~60號,0.1,4房/2廳/4衛,1 /共4層,60.92,27.39,--,--萬,13.1萬,800萬,600台灣嘉義市東區軍輝路60號,23.456132,120.4637739,興仁里
10406(實價),透天厝,嘉義市嘉義市日新街218巷31~60號,1.6,5房/2廳/4衛,1 /共4層,85.05,60.26,--,--萬,24.7萬,2100萬,600台灣嘉義市東區日新街31號,23.4674925,120.4687269,短竹里
10406(實價),透天厝,嘉義市嘉義市大雅路一段926巷1~30號,17.4,4房/1廳/3衛,1 /共4層,88.77,41.75,--,--萬,3.8萬,341萬,600台灣嘉義市東區大雅路一段1號,23.479947,120.503839,盧厝里
10406(實價),透天厝,嘉義市嘉義市軍輝路281巷31~60號,0.1,4房/2廳/4衛,1 /共4層,60.92,27.39,--,--萬,13.6萬,830萬,600台灣嘉義市東區軍輝路60號,23.456132,120.4637739,興仁里
10406(實價),華廈,嘉義市嘉義市和平路271~300號,20.1,1房/0廳/1衛,8 /共9層,11.76,1.38,--,--萬,8.9萬,105萬,600台灣嘉義市東區和平路269號,23.4800056,120.4567169,華南里
10406(實價),透天厝,嘉義市嘉義市軍輝路281巷31~60號,0.1,4房/2廳/4衛,1 /共4層,60.9,27.39,--,--萬,13.1萬,800萬,600台灣嘉義市東區軍輝路60號,23.456132,120.4637739,興仁里
10406(實價),透天厝,嘉義市嘉義市軍輝路281巷31~60號,0.1,4房/2廳/4衛,1 /共4層,60.92,27.39,--,--萬,13.8萬,838萬,600台灣嘉義市東區軍輝路60號,23.456132,120.4637739,興仁里
10406(實價),透天厝,嘉義市嘉義市軍輝路281巷31~60號,0.1,4房/2廳/4衛,1 /共4層,60.9,27.39,--,--萬,13.8萬,838萬,600台灣嘉義市東區軍輝路60號,23.456132,120.4637739,興仁里
10406(實價),透天厝,嘉義市嘉義市軍輝路281巷31~60號,0.1,4房/2廳/4衛,1 /共4層,60.92,27.39,--,--萬,13.6萬,830萬,600台灣嘉義市東區軍輝路60號,23.456132,120.4637739,興仁里
10406(實價),透天厝,嘉義市嘉義市軍輝路281巷1~30號,0.1,4房/2廳/4衛,1 /共4層,60.92,27.39,--,--萬,13.6萬,828萬,600台灣嘉義市東區軍輝路91巷1號,23.4560228,120.4618719,興仁里
10406(實價),透天厝,嘉義市嘉義市軍輝路281巷31~60號,0.1,4房/2廳/4衛,1 /共4層,60.9,27.39,--,--萬,13.9萬,848萬,600台灣嘉義市東區軍輝路60號,23.456132,120.4637739,興仁里
10406(實價),透天厝,嘉義市嘉義市東義路109巷1~30號,0.7,4房/3廳/5衛,1 /共3層,63.31,29.95,--,--萬,13.7萬,870萬,600台灣嘉義市東區東義路109巷1號,23.4950314,120.4688871,後庄里
10406(實價),透天厝,嘉義市嘉義市東義路109巷1~30號,0.7,3房/3廳/4衛,1 /共3層,61.98,27.53,--,--萬,12.9萬,800萬,600台灣嘉義市東區東義路109巷1號,23.4950314,120.4688871,後庄里
10406(實價),透天厝,嘉義市嘉義市廣州街129巷1~30號,26.3,6房/3廳/6衛,1 /共2層,84.54,58.08,--,--萬,17.7萬,1500萬,600台灣嘉義市西區廣州街30號,23.4624529,120.4355921,福民里
10406(實價),透天厝,嘉義市嘉義市忠孝路451~480號,33.1,4房/2廳/2衛,1 /共3層,59.31,26.62,--,--萬,17.4萬,1030萬,600台灣嘉義市東區縱貫公路449號,23.4936454,120.4519715,
10406(實價),透天厝,嘉義市嘉義市吳鳳南路521巷18弄1~30號,34.2,3房/2廳/2衛,1 /共2層,29.86,15.73,--,--萬,9.4萬,280萬,600台灣嘉義市東區吳鳳南路30號,23.4712666,120.4539625,豐年里
10406(實價),華廈,嘉義市嘉義市杭州四街61~90號,26.4,2房/1廳/2衛,7 /共7層,15.28,3.39,--,--萬,8.8萬,135萬,600台灣嘉義市西區杭州四街42號,23.4672318,120.4450469,美源里
10406(實價),華廈,嘉義市嘉義市竹子腳1~30號,22.8,2房/1廳/1衛,10 /共10層,26.91,5.79,--,--萬,8.1萬,218萬,600台灣嘉義市西區竹子腳巷21號,23.4943783,120.3974321,竹村里
10406(實價),透天厝,嘉義市嘉義市軍輝路281巷31~60號,0.1,4房/2廳/4衛,1 /共4層,60.92,27.39,--,--萬,13.3萬,808萬,600台灣嘉義市東區軍輝路60號,23.456132,120.4637739,興仁里
10406(實價),透天厝,嘉義市嘉義市軍輝路281巷1~30號,0.1,4房/2廳/4衛,1 /共4層,60.92,27.39,--,--萬,13.1萬,800萬,600台灣嘉義市東區軍輝路91巷1號,23.4560228,120.4618719,興仁里
10406(實價),透天厝,嘉義市嘉義市軍輝路281巷1~30號,0.1,4房/2廳/4衛,1 /共4層,60.9,27.39,--,--萬,13.3萬,810萬,600台灣嘉義市東區軍輝路91巷1號,23.4560228,120.4618719,興仁里
10406(實價),透天厝,嘉義市嘉義市軍輝路281巷31~60號,0.1,4房/2廳/4衛,1 /共4層,60.9,27.39,--,--萬,13.8萬,838萬,600台灣嘉義市東區軍輝路60號,23.456132,120.4637739,興仁里
10406(實價),透天厝,嘉義市嘉義市軍輝路281巷31~60號,0.1,4房/2廳/4衛,1 /共4層,60.92,27.39,--,--萬,13.3萬,810萬,600台灣嘉義市東區軍輝路60號,23.456132,120.4637739,興仁里
10406(實價),透天厝,嘉義市嘉義市軍輝路281巷1~30號,0.1,4房/2廳/4衛,1 /共4層,62.02,31.93,--,--萬,13.5萬,836萬,600台灣嘉義市東區軍輝路91巷1號,23.4560228,120.4618719,興仁里
10406(實價),透天厝,嘉義市嘉義市軍輝路281巷31~60號,0.1,4房/2廳/4衛,1 /共4層,60.9,27.39,--,--萬,13.3萬,810萬,600台灣嘉義市東區軍輝路60號,23.456132,120.4637739,興仁里
10406(實價),透天厝,嘉義市嘉義市軍輝路281巷31~60號,0.1,4房/2廳/4衛,1 /共4層,60.9,27.39,--,--萬,13.3萬,810萬,600台灣嘉義市東區軍輝路60號,23.456132,120.4637739,興仁里
10406(實價),透天厝,嘉義市嘉義市軍輝路281巷31~60號,0.1,4房/2廳/4衛,1 /共4層,60.92,27.39,--,--萬,13.3萬,810萬,600台灣嘉義市東區軍輝路60號,23.456132,120.4637739,興仁里
10406(實價),透天厝,嘉義市嘉義市軍輝路281巷1~30號,0.1,4房/2廳/4衛,1 /共4層,60.92,27.39,--,--萬,14.1萬,860萬,600台灣嘉義市東區軍輝路91巷1號,23.4560228,120.4618719,興仁里
10406(實價),透天厝,嘉義市嘉義市軍輝路281巷1~30號,0.1,4房/2廳/4衛,1 /共4層,60.9,27.39,--,--萬,13.1萬,800萬,600台灣嘉義市東區軍輝路91巷1號,23.4560228,120.4618719,興仁里
10406(實價),透天厝,嘉義市嘉義市軍輝路281巷1~30號,0.1,4房/2廳/4衛,1 /共4層,60.9,27.39,--,--萬,13.3萬,808萬,600台灣嘉義市東區軍輝路91巷1號,23.4560228,120.4618719,興仁里
10406(實價),透天厝,嘉義市嘉義市軍輝路281巷1~30號,0.1,4房/2廳/4衛,1 /共4層,60.92,27.39,--,--萬,13.8萬,838萬,600台灣嘉義市東區軍輝路91巷1號,23.4560228,120.4618719,興仁里
10406(實價),透天厝,嘉義市嘉義市軍輝路281巷1~30號,0.1,4房/2廳/4衛,1 /共4層,60.9,27.39,--,--萬,14.1萬,858萬,600台灣嘉義市東區軍輝路91巷1號,23.4560228,120.4618719,興仁里
10406(實價),透天厝,嘉義市嘉義市軍輝路281巷1~30號,0.1,4房/2廳/4衛,1 /共4層,60.92,27.39,--,--萬,13.9萬,848萬,600台灣嘉義市東區軍輝路91巷1號,23.4560228,120.4618719,興仁里
10406(實價),透天厝,嘉義市嘉義市軍輝路281巷1~30號,0.1,4房/2廳/4衛,1 /共4層,60.9,27.39,--,--萬,13.3萬,810萬,600台灣嘉義市東區軍輝路91巷1號,23.4560228,120.4618719,興仁里
10406(實價),透天厝,嘉義市嘉義市立仁路60巷31~60號,31.2,3房/2廳/3衛,1 /共2層,32.9,25.41,--,--萬,10.9萬,360萬,600台灣嘉義市東區立仁路38號,23.4656274,120.4658786,芳草里
10406(實價),透天厝,嘉義市嘉義市軍輝路281巷1~30號,0.1,4房/2廳/4衛,1 /共4層,62.02,30.42,--,--萬,13.3萬,828萬,600台灣嘉義市東區軍輝路91巷1號,23.4560228,120.4618719,興仁里
10406(實價),透天厝,嘉義市嘉義市軍輝路281巷1~30號,0.1,4房/2廳/4衛,1 /共4層,60.9,27.39,--,--萬,13.8萬,838萬,600台灣嘉義市東區軍輝路91巷1號,23.4560228,120.4618719,興仁里
10406(實價),透天厝,嘉義市嘉義市軍輝路281巷1~30號,0.1,4房/2廳/4衛,1 /共4層,60.92,27.39,--,--萬,14.1萬,858萬,600台灣嘉義市東區軍輝路91巷1號,23.4560228,120.4618719,興仁里
10406(實價),透天厝,嘉義市嘉義市軍輝路281巷1~30號,0.1,4房/2廳/4衛,1 /共4層,60.9,27.39,--,--萬,13.6萬,828萬,600台灣嘉義市東區軍輝路91巷1號,23.4560228,120.4618719,興仁里
10406(實價),透天厝,嘉義市嘉義市軍輝路281巷1~30號,0.1,4房/2廳/4衛,1 /共4層,60.92,27.39,--,--萬,13.5萬,820萬,600台灣嘉義市東區軍輝路91巷1號,23.4560228,120.4618719,興仁里
10406(實價),透天厝,嘉義市嘉義市軍輝路281巷1~30號,0.1,4房/2廳/4衛,1 /共4層,62.13,28.6,--,--萬,13.3萬,825萬,600台灣嘉義市東區軍輝路91巷1號,23.4560228,120.4618719,興仁里
10406(實價),透天厝,嘉義市嘉義市軍輝路281巷31~60號,0.1,4房/2廳/4衛,1 /共4層,60.92,27.39,--,--萬,13.3萬,810萬,600台灣嘉義市東區軍輝路60號,23.456132,120.4637739,興仁里
10406(實價),透天厝,嘉義市嘉義市軍輝路281巷31~60號,0.1,4房/2廳/4衛,1 /共4層,60.92,27.39,--,--萬,13.6萬,828萬,600台灣嘉義市東區軍輝路60號,23.456132,120.4637739,興仁里
10406(實價),透天厝,嘉義市嘉義市軍輝路281巷31~60號,0.1,4房/2廳/4衛,1 /共4層,60.9,27.39,--,--萬,13.3萬,810萬,600台灣嘉義市東區軍輝路60號,23.456132,120.4637739,興仁里
10406(實價),透天厝,嘉義市嘉義市軍輝路281巷31~60號,0.1,4房/2廳/4衛,1 /共4層,60.9,27.39,--,--萬,13.3萬,810萬,600台灣嘉義市東區軍輝路60號,23.456132,120.4637739,興仁里
10406(實價),透天厝,嘉義市嘉義市軍輝路281巷31~60號,0.1,4房/2廳/4衛,1 /共4層,60.92,27.39,--,--萬,13.8萬,838萬,600台灣嘉義市東區軍輝路60號,23.456132,120.4637739,興仁里
10406(實價),透天厝,嘉義市嘉義市五福街203巷1~30號,37.4,4房/2廳/2衛,1 /共2層,26.32,21.48,--,--萬,23.2萬,610萬,600台灣嘉義市東區五福街203巷1號,23.4880593,120.4696815,王田里
10406(實價),住宅大樓,嘉義市嘉義市臺斗街31~60號,15.9,3房/2廳/2衛,3 /共11層,34.12,5.92,--,--萬,9.8萬,335萬,600台灣嘉義市東區台斗街31號,23.4909592,120.4514337,中庄里
10406(實價),公寓,嘉義市嘉義市溪興街151~180號,31,2房/1廳/1衛,3 /共5層,19.31,5.22,--,--萬,6.9萬,133萬,600台灣嘉義市東區溪興街151號,23.4549838,120.456704,興村里
10406(實價),透天厝,嘉義市嘉義市興仁街27巷1~30號,10.8,4房/3廳/3衛,1 /共3層,55.78,32.25,--,--萬,13.6萬,758萬,600台灣嘉義市西區民生南路850巷1弄30號,23.4545835,120.4393273,湖內里
10406(實價),透天厝,嘉義市嘉義市福全街31巷31~60號,0.2,5房/3廳/5衛,1 /共3層,70.96,43.56,--,--萬,16.2萬,1150萬,600台灣嘉義市西區福全街31巷31號,23.4778141,120.4320579,福全里
10406(實價),華廈(含車位),嘉義市嘉義市湖子內路1巷61~90號,22,2房/1廳/1衛,2 /共6層,35.89,7.11,--,--萬,7.5萬,270萬,600台灣嘉義市西區湖子內路61號,23.4537042,120.4425423,湖內里
10406(實價),套房,嘉義市嘉義市吳鳳南路571~600號,19.3,1房/1廳/1衛,6 /共15層,13.01,1.46,--,--萬,9.7萬,126萬,600台灣嘉義市東區吳鳳南路521巷523號,23.4613,120.4571352,安寮里
10406(實價),透天厝,嘉義市嘉義市高鐵大道22巷1~30號,2.8,4房/3廳/3衛,1 /共3層,56.41,38.84,--,--萬,16萬,900萬,600台灣嘉義市西區高鐵大道22巷31號,23.4774404,120.4318332,福全里